FLASER 0 -0.724455 -0.0658839 81.6763 -0.724455 -0.0658839 81.6763 976055541.979699969 myhost 976055541.979699969
FLASER 0 -0.581034770019682401 -0.069208282925543943 81.6752404399977365 -0.581034770019682401 -0.069208282925543943 81.6752404399977365 976055541.100237966 myhost 976055541.100237966
FLASER 0 -1.38695691797643761 -0.0516485881134586614 81.9052287534714196 -1.38695691797643761 -0.0516485881134586614 81.9052287534714196 976055536.721703053 myhost 976055536.721703053
FLASER 0 -1.47343664865294111 0.0315128019966741391 82.3801204963254747 -1.47343664865294111 0.0315128019966741391 82.3801204963254747 976055533.945698023 myhost 976055533.945698023
FLASER 0 -1.47900321839309545 0.0333073439361879914 82.9155589691211645 -1.47900321839309545 0.0333073439361879914 82.9155589691211645 976055532.637850046 myhost 976055532.637850046
FLASER 0 -1.50716556780184074 -0.0132039691742163994 83.4008014002585298 -1.50716556780184074 -0.0132039691742163994 83.4008014002585298 976055532.540510058 myhost 976055532.540510058
FLASER 0 -1.46445538360370331 -0.0121132240458372634 82.7969182200145184 -1.46445538360370331 -0.0121132240458372634 82.7969182200145184 976055532.527529001 myhost 976055532.527529001
FLASER 0 -1.47018429468281941 -0.261242580395774748 83.4075646037544516 -1.47018429468281941 -0.261242580395774748 83.4075646037544516 976055528.370638967 myhost 976055528.370638967
FLASER 0 -1.4059547207089893 -1.26372856847077286 83.3264929381963242 -1.4059547207089893 -1.26372856847077286 83.3264929381963242 976055524.895115972 myhost 976055524.895115972
FLASER 0 -1.39738576423833161 -1.75524147178323076 83.3538479271868766 -1.39738576423833161 -1.75524147178323076 83.3538479271868766 976055522.761944056 myhost 976055522.761944056
FLASER 0 -1.26380338722373953 -2.66689248189199413 83.3102364555652883 -1.26380338722373953 -2.66689248189199413 83.3102364555652883 976055519.400673985 myhost 976055519.400673985
FLASER 0 -1.38365483910326481 -3.65631094770646747 83.245401965495887 -1.38365483910326481 -3.65631094770646747 83.245401965495887 976055518.25672996 myhost 976055518.25672996
FLASER 0 -1.34834682298616837 -4.63222757217381798 83.2868642841612399 -1.34834682298616837 -4.63222757217381798 83.2868642841612399 976055512.837046981 myhost 976055512.837046981
FLASER 0 -1.38316410847503923 -5.42325785680344019 83.194419206364941 -1.38316410847503923 -5.42325785680344019 83.194419206364941 976055509.580526948 myhost 976055509.580526948
FLASER 0 -1.43161087748553384 -6.38187727348633782 83.2806594154902911 -1.43161087748553384 -6.38187727348633782 83.2806594154902911 976055508.909240007 myhost 976055508.909240007
FLASER 0 -1.42200350231402628 -5.7661933413398172 83.1672157561622072 -1.42200350231402628 -5.7661933413398172 83.1672157561622072 976055508.550624967 myhost 976055508.550624967
FLASER 0 -1.4472503002773045 -6.76670134142296664 83.2288931002513408 -1.4472503002773045 -6.76670134142296664 83.2288931002513408 976055504.83040297 myhost 976055504.83040297
FLASER 0 -1.466955492883667 -7.76647515886335782 83.1852470828681447 -1.466955492883667 -7.76647515886335782 83.1852470828681447 976055503.414610028 myhost 976055503.414610028
FLASER 0 -1.55107157769613613 -8.73772515798232163 83.2328414669872956 -1.55107157769613613 -8.73772515798232163 83.2328414669872956 976055498.876471043 myhost 976055498.876471043
FLASER 0 -1.62534572579054948 -9.81134629103119771 83.1670188674790722 -1.62534572579054948 -9.81134629103119771 83.1670188674790722 976055494.397979975 myhost 976055494.397979975
FLASER 0 -1.58721522669882154 -10.8233596967640118 83.3962181642161653 -1.58721522669882154 -10.8233596967640118 83.3962181642161653 976055490.364580989 myhost 976055490.364580989
FLASER 0 -1.49977564960183796 -11.8131730985186447 83.3135593611659004 -1.49977564960183796 -11.8131730985186447 83.3135593611659004 976055486.789108992 myhost 976055486.789108992
FLASER 0 -1.50901010272771896 -12.8507682188227079 83.3723016828250536 -1.50901010272771896 -12.8507682188227079 83.3723016828250536 976055483.134155035 myhost 976055483.134155035
FLASER 0 -1.42020834187829292 -13.7861625536606951 83.210313679972927 -1.42020834187829292 -13.7861625536606951 83.210313679972927 976055479.47656095 myhost 976055479.47656095
FLASER 0 -1.45502382217293436 -14.4608702096549315 83.2181100775887899 -1.45502382217293436 -14.4608702096549315 83.2181100775887899 976055478.906800032 myhost 976055478.906800032
FLASER 0 -1.42631705464023528 -14.0577547422597871 83.2130671855365733 -1.42631705464023528 -14.0577547422597871 83.2130671855365733 976055478.67702198 myhost 976055478.67702198
FLASER 0 -1.41921693748758848 -14.9548991310007207 83.3782067866976888 -1.41921693748758848 -14.9548991310007207 83.3782067866976888 976055475.281986952 myhost 976055475.281986952
FLASER 0 -1.31540612451920347 -15.8961013374669236 83.3132295188483738 -1.31540612451920347 -15.8961013374669236 83.3132295188483738 976055473.919082999 myhost 976055473.919082999
FLASER 0 -1.23377474942894882 -16.8427931049024835 83.1131525407669471 -1.23377474942894882 -16.8427931049024835 83.1131525407669471 976055469.748039961 myhost 976055469.748039961
FLASER 0 -1.17917113382465089 -16.8797468894741662 82.5751287630569522 -1.17917113382465089 -16.8797468894741662 82.5751287630569522 976055466.453837991 myhost 976055466.453837991
FLASER 0 -1.13529188157452077 -16.9141048905894529 82.0496574132749572 -1.13529188157452077 -16.9141048905894529 82.0496574132749572 976055465.504089952 myhost 976055465.504089952
FLASER 0 -1.76228237412761257 -16.9697983633297191 81.6475517374715452 -1.76228237412761257 -16.9697983633297191 81.6475517374715452 976055461.446989059 myhost 976055461.446989059
FLASER 0 -2.83805169593029261 -16.8566274839757817 81.6285898148181985 -2.83805169593029261 -16.8566274839757817 81.6285898148181985 976055457.44817102 myhost 976055457.44817102
FLASER 0 -3.87713975752450546 -16.8396867520617235 81.6235117094411464 -3.87713975752450546 -16.8396867520617235 81.6235117094411464 976055453.926208019 myhost 976055453.926208019
FLASER 0 -4.89643398381009209 -16.7748119245103418 81.6243290980626597 -4.89643398381009209 -16.7748119245103418 81.6243290980626597 976055450.213881969 myhost 976055450.213881969
FLASER 0 -5.8739880041008119 -16.693673214874174 81.4216044260998473 -5.8739880041008119 -16.693673214874174 81.4216044260998473 976055446.14379096 myhost 976055446.14379096
FLASER 0 -5.8973191868875503 -16.7377886392131572 80.9108217201440709 -5.8973191868875503 -16.7377886392131572 80.9108217201440709 976055445.652809978 myhost 976055445.652809978
FLASER 0 -5.93505258641045863 -16.7625186092096534 80.365430247504051 -5.93505258641045863 -16.7625186092096534 80.365430247504051 976055445.645979047 myhost 976055445.645979047
FLASER 0 -5.94003409930735948 -16.2641793103521159 80.0201662138482845 -5.94003409930735948 -16.2641793103521159 80.0201662138482845 976055441.582537055 myhost 976055441.582537055
FLASER 0 -5.85371150257144368 -15.324677756984423 80.047212737016423 -5.85371150257144368 -15.324677756984423 80.047212737016423 976055437.667148948 myhost 976055437.667148948
FLASER 0 -5.79638862439092772 -14.352479974553324 80.0911656101000915 -5.79638862439092772 -14.352479974553324 80.0911656101000915 976055433.599251032 myhost 976055433.599251032
FLASER 0 -5.79888769107502799 -13.3318520265092477 80.1402689426062409 -5.79888769107502799 -13.3318520265092477 80.1402689426062409 976055429.681280971 myhost 976055429.681280971
FLASER 0 -5.87880562706205989 -12.3257621047904138 80.1948301827432601 -5.87880562706205989 -12.3257621047904138 80.1948301827432601 976055425.711969972 myhost 976055425.711969972
FLASER 0 -6.02602237668613228 -11.4139410521434037 80.2743352075323173 -6.02602237668613228 -11.4139410521434037 80.2743352075323173 976055422.191877961 myhost 976055422.191877961
FLASER 0 -6.1677778610331 -10.4340343849855675 79.9323055265484328 -6.1677778610331 -10.4340343849855675 79.9323055265484328 976055418.31693995 myhost 976055418.31693995
FLASER 0 -6.26336219217403656 -10.3896002490195531 79.5326536336721261 -6.26336219217403656 -10.3896002490195531 79.5326536336721261 976055417.471271992 myhost 976055417.471271992
FLASER 0 -6.31650425601475618 -10.4443978970541345 79.0305821230867167 -6.31650425601475618 -10.4443978970541345 79.0305821230867167 976055417.466006041 myhost 976055417.466006041
FLASER 0 -6.24872478896787342 -10.3868324029728836 78.4522369926085332 -6.24872478896787342 -10.3868324029728836 78.4522369926085332 976055414.912289023 myhost 976055414.912289023
FLASER 0 -6.23046961131265764 -10.3683073997562349 77.9864382968192018 -6.23046961131265764 -10.3683073997562349 77.9864382968192018 976055413.651309967 myhost 976055413.651309967
FLASER 0 -6.20248874148714258 -10.2981766639585253 77.4751271297628961 -6.20248874148714258 -10.2981766639585253 77.4751271297628961 976055413.193675041 myhost 976055413.193675041
FLASER 0 -6.12725567384826419 -10.7126253566832528 77.0992185634626139 -6.12725567384826419 -10.7126253566832528 77.0992185634626139 976055408.867391944 myhost 976055408.867391944
FLASER 0 -6.06369396768635127 -11.435075458556808 77.0280559359893573 -6.06369396768635127 -11.435075458556808 77.0280559359893573 976055405.769880056 myhost 976055405.769880056
FLASER 0 -6.03941544423510734 -12.3755238997112809 76.9810336697710227 -6.03941544423510734 -12.3755238997112809 76.9810336697710227 976055402.513499975 myhost 976055402.513499975
FLASER 0 -6.06462388597608193 -13.4034264989373213 77.1176994800596276 -6.06462388597608193 -13.4034264989373213 77.1176994800596276 976055400.819437027 myhost 976055400.819437027
FLASER 0 -5.92694435153222532 -14.2953387723527783 77.2019043974898409 -5.92694435153222532 -14.2953387723527783 77.2019043974898409 976055396.659829974 myhost 976055396.659829974
FLASER 0 -5.63803717472878763 -15.1593830792431827 77.3679143343611315 -5.63803717472878763 -15.1593830792431827 77.3679143343611315 976055392.265207052 myhost 976055392.265207052
FLASER 0 -5.36513587517048318 -16.0329276941361627 77.2707396020807096 -5.36513587517048318 -16.0329276941361627 77.2707396020807096 976055388.668030024 myhost 976055388.668030024
FLASER 0 -5.2894799560284369 -16.3344407238194265 77.2891748535012795 -5.2894799560284369 -16.3344407238194265 77.2891748535012795 976055388.12946105 myhost 976055388.12946105
FLASER 0 -5.03165016209645266 -16.9169381073240679 76.8983597265114014 -5.03165016209645266 -16.9169381073240679 76.8983597265114014 976055384.399888992 myhost 976055384.399888992
FLASER 0 -4.97592318057319094 -16.9388870104779699 76.2640216703930776 -4.97592318057319094 -16.9388870104779699 76.2640216703930776 976055383.861714005 myhost 976055383.861714005
FLASER 0 -4.96130102070049617 -17.0105914009070034 75.7370005596546889 -4.96130102070049617 -17.0105914009070034 75.7370005596546889 976055383.855666995 myhost 976055383.855666995
FLASER 0 -4.97077157893423305 -17.0728838431853553 75.1743025846469237 -4.97077157893423305 -17.0728838431853553 75.1743025846469237 976055380.707190037 myhost 976055380.707190037
FLASER 0 -4.99161830215375346 -17.1064606703682429 74.6634251678585343 -4.99161830215375346 -17.1064606703682429 74.6634251678585343 976055379.426062942 myhost 976055379.426062942
FLASER 0 -5.04045127926578296 -17.1271446584615887 74.1108038079456719 -5.04045127926578296 -17.1271446584615887 74.1108038079456719 976055379.410964012 myhost 976055379.410964012
FLASER 0 -5.09437252643534944 -17.1322705632528525 73.5604798324321223 -5.09437252643534944 -17.1322705632528525 73.5604798324321223 976055376.892222047 myhost 976055376.892222047
FLASER 0 -5.12019811355953802 -17.1212252191480054 73.3023743065317603 -5.12019811355953802 -17.1212252191480054 73.3023743065317603 976055376.348868966 myhost 976055376.348868966
FLASER 0 -5.16893429825935957 -17.089932187794151 72.8094720360731884 -5.16893429825935957 -17.089932187794151 72.8094720360731884 976055375.159628987 myhost 976055375.159628987
FLASER 0 -4.64947568823007984 -17.015648506571555 72.3472833233075079 -4.64947568823007984 -17.015648506571555 72.3472833233075079 976055371.695567012 myhost 976055371.695567012
FLASER 0 -3.66253498978616321 -16.9596713297890211 72.2519626625464895 -3.66253498978616321 -16.9596713297890211 72.2519626625464895 976055368.126947999 myhost 976055368.126947999
FLASER 0 -3.46098501781516843 -16.9411607811874312 72.2684281920789573 -3.46098501781516843 -16.9411607811874312 72.2684281920789573 976055367.270462036 myhost 976055367.270462036
FLASER 0 -2.41813252263116851 -17.0226021893033632 72.2868723116470306 -2.41813252263116851 -17.0226021893033632 72.2868723116470306 976055363.762545943 myhost 976055363.762545943
FLASER 0 -1.59704307114318533 -16.9482726640744339 72.2445309563202187 -1.59704307114318533 -16.9482726640744339 72.2445309563202187 976055360.533668041 myhost 976055360.533668041
FLASER 0 -1.24894794450031998 -17.0159944500500622 72.7268116308086263 -1.24894794450031998 -17.0159944500500622 72.7268116308086263 976055358.584476948 myhost 976055358.584476948
FLASER 0 -1.21669786374985911 -17.1435090143413795 73.2303007682672131 -1.21669786374985911 -17.1435090143413795 73.2303007682672131 976055355.750226021 myhost 976055355.750226021
FLASER 0 -1.11239066309697576 -16.5360551339344433 73.695164442525126 -1.11239066309697576 -16.5360551339344433 73.695164442525126 976055351.671645999 myhost 976055351.671645999
FLASER 0 -1.00054980835035723 -15.7438115571133235 73.9695117900829189 -1.00054980835035723 -15.7438115571133235 73.9695117900829189 976055347.506800056 myhost 976055347.506800056
FLASER 0 -0.980685359860891115 -15.7480693270621295 74.1718138380511505 -0.980685359860891115 -15.7480693270621295 74.1718138380511505 976055346.569004059 myhost 976055346.569004059
FLASER 0 -0.95344944674296439 -15.6103870483386924 74.7049968171708798 -0.95344944674296439 -15.6103870483386924 74.7049968171708798 976055344.199849963 myhost 976055344.199849963
FLASER 0 -1.88049365737427143 -15.3822082112922924 75.1331727933036433 -1.88049365737427143 -15.3822082112922924 75.1331727933036433 976055338.630270004 myhost 976055338.630270004
FLASER 0 -2.75783282201530122 -15.1360301770331667 75.3070911091236042 -2.75783282201530122 -15.1360301770331667 75.3070911091236042 976055335.421110988 myhost 976055335.421110988
FLASER 0 -3.6332373267246294 -15.2567163369444074 75.3526374052338497 -3.6332373267246294 -15.2567163369444074 75.3526374052338497 976055331.816817999 myhost 976055331.816817999
FLASER 0 -3.64963375027639536 -15.2866404477555058 74.7990185987905392 -3.64963375027639536 -15.2866404477555058 74.7990185987905392 976055330.353157997 myhost 976055330.353157997
FLASER 0 -3.69692907411751648 -15.3272376012790073 74.2759616187325946 -3.69692907411751648 -15.3272376012790073 74.2759616187325946 976055329.996062994 myhost 976055329.996062994
FLASER 0 -3.74923218248448231 -15.3429116184009473 73.7610002888878853 -3.74923218248448231 -15.3429116184009473 73.7610002888878853 976055329.975643039 myhost 976055329.975643039
FLASER 0 -3.81618183639750441 -15.318381062756627 73.271876793332126 -3.81618183639750441 -15.318381062756627 73.271876793332126 976055326.810173988 myhost 976055326.810173988
FLASER 0 -3.84403730234034136 -15.3233687435662045 72.7128145078275026 -3.84403730234034136 -15.3233687435662045 72.7128145078275026 976055325.731735945 myhost 976055325.731735945
FLASER 0 -3.09256414150974068 -15.2981300552646839 72.2608540567428577 -3.09256414150974068 -15.2981300552646839 72.2608540567428577 976055321.97813499 myhost 976055321.97813499
FLASER 0 -2.07554158997001625 -15.4246327120413405 72.0744691328505525 -2.07554158997001625 -15.4246327120413405 72.0744691328505525 976055317.827083945 myhost 976055317.827083945
FLASER 0 -2.03532781560755538 -15.4817307527996455 72.5483908052960373 -2.03532781560755538 -15.4817307527996455 72.5483908052960373 976055315.59227705 myhost 976055315.59227705
FLASER 0 -1.35826106613502873 -15.1509140504197539 72.9865234149125683 -1.35826106613502873 -15.1509140504197539 72.9865234149125683 976055309.679553032 myhost 976055309.679553032
FLASER 0 -1.29116481602578381 -15.1811620855845923 73.505773427762449 -1.29116481602578381 -15.1811620855845923 73.505773427762449 976055307.240937948 myhost 976055307.240937948
FLASER 0 -1.29269459922565066 -14.9251373379772918 73.9607222706371488 -1.29269459922565066 -14.9251373379772918 73.9607222706371488 976055303.320996046 myhost 976055303.320996046
FLASER 0 -1.4595843216657185 -13.9433456003343466 73.9508131652988254 -1.4595843216657185 -13.9433456003343466 73.9508131652988254 976055299.490813017 myhost 976055299.490813017
FLASER 0 -1.5190256746541233 -13.3587634227283356 73.9333092449459173 -1.5190256746541233 -13.3587634227283356 73.9333092449459173 976055297.796028018 myhost 976055297.796028018
FLASER 0 -1.68666586983115652 -12.3959965423190361 73.8063969248335354 -1.68666586983115652 -12.3959965423190361 73.8063969248335354 976055293.946954012 myhost 976055293.946954012
FLASER 0 -1.49952377775429002 -11.2465697848279316 73.8001304216990803 -1.49952377775429002 -11.2465697848279316 73.8001304216990803 976055290.159932971 myhost 976055290.159932971
FLASER 0 -1.47304041356900828 -10.2942245042103764 73.9226686703432421 -1.47304041356900828 -10.2942245042103764 73.9226686703432421 976055286.62985599 myhost 976055286.62985599
FLASER 0 -1.58020104559570895 -9.33817834402849201 73.7013858959139725 -1.58020104559570895 -9.33817834402849201 73.7013858959139725 976055280.498893023 myhost 976055280.498893023
FLASER 0 -1.45968534199204769 -8.28400436454793265 73.7566668106750711 -1.45968534199204769 -8.28400436454793265 73.7566668106750711 976055278.759865046 myhost 976055278.759865046
FLASER 0 -1.35442351707043018 -7.37130373635361025 74.1290503499005951 -1.35442351707043018 -7.37130373635361025 74.1290503499005951 976055272.878000021 myhost 976055272.878000021
FLASER 0 -1.46279481763891095 -7.16323457164927557 73.9286192730140499 -1.46279481763891095 -7.16323457164927557 73.9286192730140499 976055270.47024703 myhost 976055270.47024703
FLASER 0 -1.43795866757695645 -6.91899504286356226 73.6393984311027765 -1.43795866757695645 -6.91899504286356226 73.6393984311027765 976055266.705675006 myhost 976055266.705675006
FLASER 0 -1.33252109718510181 -5.96483378623655813 73.7360793895800413 -1.33252109718510181 -5.96483378623655813 73.7360793895800413 976055262.730543017 myhost 976055262.730543017
FLASER 0 -1.29612635801344434 -5.657058116539881 74.0588436188882326 -1.29612635801344434 -5.657058116539881 74.0588436188882326 976055260.37985599 myhost 976055260.37985599
FLASER 0 -1.2552425237349405 -5.59833562601013313 74.6874325837639077 -1.2552425237349405 -5.59833562601013313 74.6874325837639077 976055258.402083039 myhost 976055258.402083039
FLASER 0 -1.25801525423419647 -5.57537347980882636 75.1850101041445527 -1.25801525423419647 -5.57537347980882636 75.1850101041445527 976055256.213294983 myhost 976055256.213294983
FLASER 0 -2.02769144252305145 -5.6663665550039557 75.5932599176331195 -2.02769144252305145 -5.6663665550039557 75.5932599176331195 976055251.503144026 myhost 976055251.503144026
FLASER 0 -2.996458468089505 -5.82061757367413168 76.0195513264618654 -2.996458468089505 -5.82061757367413168 76.0195513264618654 976055246.770267963 myhost 976055246.770267963
FLASER 0 -3.02509069651418283 -5.79604030387239266 76.4662387518690565 -3.02509069651418283 -5.79604030387239266 76.4662387518690565 976055243.659685969 myhost 976055243.659685969
FLASER 0 -3.42130852186103906 -6.53682380090951298 76.4874367354509843 -3.42130852186103906 -6.53682380090951298 76.4874367354509843 976055241.777799964 myhost 976055241.777799964
FLASER 0 -3.85328687842071949 -7.42355181667587338 76.1347092320450258 -3.85328687842071949 -7.42355181667587338 76.1347092320450258 976055237.731385946 myhost 976055237.731385946
FLASER 0 -3.85423099459108665 -7.47375835134754052 75.5793223372464951 -3.85423099459108665 -7.47375835134754052 75.5793223372464951 976055235.523561954 myhost 976055235.523561954
FLASER 0 -3.83858682611968138 -7.52687004383636538 75.0674136535863425 -3.83858682611968138 -7.52687004383636538 75.0674136535863425 976055234.230065942 myhost 976055234.230065942
FLASER 0 -3.846979664643289 -7.56599335000214168 74.5093005038898042 -3.846979664643289 -7.56599335000214168 74.5093005038898042 976055233.793382049 myhost 976055233.793382049
FLASER 0 -3.92385823491321961 -7.60686350760835506 73.977516451315509 -3.92385823491321961 -7.60686350760835506 73.977516451315509 976055231.693040967 myhost 976055231.693040967
FLASER 0 -3.9722768020000645 -7.60616287651821477 73.4471610894610336 -3.9722768020000645 -7.60616287651821477 73.4471610894610336 976055230.492491961 myhost 976055230.492491961
FLASER 0 -3.50961928009990665 -7.0789651137349221 73.1934545754311614 -3.50961928009990665 -7.0789651137349221 73.1934545754311614 976055225.895246029 myhost 976055225.895246029
FLASER 0 -3.43245083493539926 -6.854259074590205 73.6160493952898065 -3.43245083493539926 -6.854259074590205 73.6160493952898065 976055222.709066033 myhost 976055222.709066033
FLASER 0 -3.24502906637489108 -5.94320988999729316 73.222583131869726 -3.24502906637489108 -5.94320988999729316 73.222583131869726 976055218.394152999 myhost 976055218.394152999
FLASER 0 -3.295845320884359 -5.89561832971998889 72.7526533716353754 -3.295845320884359 -5.89561832971998889 72.7526533716353754 976055217.727133036 myhost 976055217.727133036
FLASER 0 -3.00179933658774889 -5.80498212022776006 72.3391342962134729 -3.00179933658774889 -5.80498212022776006 72.3391342962134729 976055214.308895946 myhost 976055214.308895946
FLASER 0 -2.14417185789845588 -5.80052055455487725 72.3713862920085802 -2.14417185789845588 -5.80052055455487725 72.3713862920085802 976055211.113669038 myhost 976055211.113669038
FLASER 0 -2.0507952000686176 -5.77737605446402114 72.9337358469041845 -2.0507952000686176 -5.77737605446402114 72.9337358469041845 976055209.592787027 myhost 976055209.592787027
FLASER 0 -1.33242161553322203 -5.20140790393531116 73.0833232878417647 -1.33242161553322203 -5.20140790393531116 73.0833232878417647 976055205.807834983 myhost 976055205.807834983
FLASER 0 -1.31335770901338389 -5.2174229037057902 73.5164249443888309 -1.31335770901338389 -5.2174229037057902 73.5164249443888309 976055202.558972001 myhost 976055202.558972001
FLASER 0 -1.3014441651875519 -5.21195186735061533 73.2413173342335 -1.3014441651875519 -5.21195186735061533 73.2413173342335 976055198.978778005 myhost 976055198.978778005
FLASER 0 -1.31175074292253324 -5.20105184202673687 72.8773704801241564 -1.31175074292253324 -5.20105184202673687 72.8773704801241564 976055198.109827042 myhost 976055198.109827042
FLASER 0 -1.32593122087625703 -5.12537539006495813 72.3314400965523134 -1.32593122087625703 -5.12537539006495813 72.3314400965523134 976055197.51601696 myhost 976055197.51601696
FLASER 0 -0.837672227546235049 -5.11891423556380243 72.3703331248555202 -0.837672227546235049 -5.11891423556380243 72.3703331248555202 976055193.748916984 myhost 976055193.748916984
FLASER 0 0.10737706188234214 -5.09063562144509696 72.4383257562472238 0.10737706188234214 -5.09063562144509696 72.4383257562472238 976055189.734315991 myhost 976055189.734315991
FLASER 0 0.108597921134215916 -5.07963206205835771 72.9697415883591276 0.108597921134215916 -5.07963206205835771 72.9697415883591276 976055189.297626972 myhost 976055189.297626972
FLASER 0 0.132550963946721806 -5.14987882479421089 73.332337418610436 0.132550963946721806 -5.14987882479421089 73.332337418610436 976055186.573078036 myhost 976055186.573078036
FLASER 0 0.199186978873100884 -4.87764273406053039 73.7660925948233768 0.199186978873100884 -4.87764273406053039 73.7660925948233768 976055183.541175961 myhost 976055183.541175961
FLASER 0 0.27537543847071505 -3.79364101102616047 73.7854354751437569 0.27537543847071505 -3.79364101102616047 73.7854354751437569 976055179.727525949 myhost 976055179.727525949
FLASER 0 0.22779331241227066 -3.53694671339518774 73.3634574403255755 0.22779331241227066 -3.53694671339518774 73.3634574403255755 976055177.782292008 myhost 976055177.782292008
FLASER 0 0.197985041909480519 -3.45104780133042599 72.8403638903815249 0.197985041909480519 -3.45104780133042599 72.8403638903815249 976055175.898149014 myhost 976055175.898149014
FLASER 0 0.170780400670794391 -3.43626641321389803 72.2857981010810988 0.170780400670794391 -3.43626641321389803 72.2857981010810988 976055174.802845955 myhost 976055174.802845955
FLASER 0 0.137425314203482807 -3.40869760864778515 71.8561320951919527 0.137425314203482807 -3.40869760864778515 71.8561320951919527 976055173.916376948 myhost 976055173.916376948
FLASER 0 0.161281183632174197 -3.35056348701567774 71.2908082807536232 0.161281183632174197 -3.35056348701567774 71.2908082807536232 976055173.910642982 myhost 976055173.910642982
FLASER 0 0.203905128106233013 -3.32334131215010231 70.781985294155902 0.203905128106233013 -3.32334131215010231 70.781985294155902 976055171.426316023 myhost 976055171.426316023
FLASER 0 0.272685572567176293 -3.33099224598504495 70.2078778781261832 0.272685572567176293 -3.33099224598504495 70.2078778781261832 976055170.165424943 myhost 976055170.165424943
FLASER 0 0.31901556061028008 -3.37906665860972089 69.5860389919449602 0.31901556061028008 -3.37906665860972089 69.5860389919449602 976055170.160078049 myhost 976055170.160078049
FLASER 0 0.216477776193380878 -3.42561030920807585 69.1452702942189035 0.216477776193380878 -3.42561030920807585 69.1452702942189035 976055166.74764502 myhost 976055166.74764502
FLASER 0 -0.81020819350084039 -3.48527673846451425 69.1286154419930625 -0.81020819350084039 -3.48527673846451425 69.1286154419930625 976055162.866490006 myhost 976055162.866490006
FLASER 0 -1.8415158947769168 -3.56306004442732283 69.1610400295977854 -1.8415158947769168 -3.56306004442732283 69.1610400295977854 976055159.353180051 myhost 976055159.353180051
FLASER 0 -2.89853979219968227 -3.58010356931028628 69.1200396799166867 -2.89853979219968227 -3.58010356931028628 69.1200396799166867 976055155.968999028 myhost 976055155.968999028
FLASER 0 -2.93213319081287693 -3.53328848785298844 69.6340294642636621 -2.93213319081287693 -3.53328848785298844 69.6340294642636621 976055154.460942984 myhost 976055154.460942984
FLASER 0 -2.95271754838906952 -3.49082028167913982 70.1775322136169279 -2.95271754838906952 -3.49082028167913982 70.1775322136169279 976055151.909319997 myhost 976055151.909319997
FLASER 0 -2.98085292033439631 -3.46297174598223911 70.5910526785780519 -2.98085292033439631 -3.46297174598223911 70.5910526785780519 976055150.650611997 myhost 976055150.650611997
FLASER 0 -2.96174901180570815 -3.45564131767237726 70.4136287309876536 -2.96174901180570815 -3.45564131767237726 70.4136287309876536 976055147.667597055 myhost 976055147.667597055
FLASER 0 -2.92239222860473502 -3.46928284698497214 69.8570702285698957 -2.92239222860473502 -3.46928284698497214 69.8570702285698957 976055146.829776049 myhost 976055146.829776049
FLASER 0 -2.89951841280781908 -3.5210726017145566 69.2975217907466998 -2.89951841280781908 -3.5210726017145566 69.2975217907466998 976055146.80401504 myhost 976055146.80401504
FLASER 0 -2.90962460825607705 -3.57644057304879803 68.7662055421114076 -2.90962460825607705 -3.57644057304879803 68.7662055421114076 976055144.137766957 myhost 976055144.137766957
FLASER 0 -2.9363102087046582 -3.60641920988717146 68.133286866612579 -2.9363102087046582 -3.60641920988717146 68.133286866612579 976055142.835723042 myhost 976055142.835723042
FLASER 0 -2.94355714583681971 -3.62479382372512049 67.5929809651492945 -2.94355714583681971 -3.62479382372512049 67.5929809651492945 976055142.830129027 myhost 976055142.830129027
FLASER 0 -3.02465262876687291 -3.60219302641601491 67.0254177529529187 -3.02465262876687291 -3.60219302641601491 67.0254177529529187 976055140.357509017 myhost 976055140.357509017
FLASER 0 -3.04868867146143652 -3.59056063223349087 66.7962658331084498 -3.04868867146143652 -3.59056063223349087 66.7962658331084498 976055139.865947008 myhost 976055139.865947008
FLASER 0 -3.07939156500249034 -3.53342929725596111 65.9272338815285508 -3.07939156500249034 -3.53342929725596111 65.9272338815285508 976055139.766499996 myhost 976055139.766499996
FLASER 0 -3.06896603906079513 -3.56779452360938309 66.395919862758717 -3.06896603906079513 -3.56779452360938309 66.395919862758717 976055139.143399954 myhost 976055139.143399954
FLASER 0 -2.96647149659125242 -3.5481576421147043 65.9223802883438168 -2.96647149659125242 -3.5481576421147043 65.9223802883438168 976055136.643805027 myhost 976055136.643805027
FLASER 0 -2.01540708478592734 -3.55352612126546807 65.9988929624262539 -2.01540708478592734 -3.55352612126546807 65.9988929624262539 976055133.395292044 myhost 976055133.395292044
FLASER 0 -1.44140493119992863 -3.6013079109982451 66.0500484053501538 -1.44140493119992863 -3.6013079109982451 66.0500484053501538 976055131.328732967 myhost 976055131.328732967
FLASER 0 -1.43350156950130669 -3.64136151656093299 66.5594021707035779 -1.43350156950130669 -3.64136151656093299 66.5594021707035779 976055128.364465952 myhost 976055128.364465952
FLASER 0 -1.36999500546591846 -3.66331573522585874 67.0615932370106691 -1.36999500546591846 -3.66331573522585874 67.0615932370106691 976055127.468508005 myhost 976055127.468508005
FLASER 0 -1.31997146589356307 -3.0041372546848395 67.4925165926457282 -1.31997146589356307 -3.0041372546848395 67.4925165926457282 976055122.150220037 myhost 976055122.150220037
FLASER 0 -1.35632164135673228 -2.30799329068561931 67.5375159337049951 -1.35632164135673228 -2.30799329068561931 67.5375159337049951 976055120.190618992 myhost 976055120.190618992
FLASER 0 -1.34207644945478588 -1.32023005153207329 67.5657727872836205 -1.34207644945478588 -1.32023005153207329 67.5657727872836205 976055116.651833057 myhost 976055116.651833057
FLASER 0 -1.33746984981070605 -0.42490565951401027 67.6025155859644542 -1.33746984981070605 -0.42490565951401027 67.6025155859644542 976055112.923218012 myhost 976055112.923218012
FLASER 0 -1.41857463677077211 -0.335562941185432007 67.0622114395148685 -1.41857463677077211 -0.335562941185432007 67.0622114395148685 976055110.740797043 myhost 976055110.740797043
FLASER 0 -1.45789095097540988 -0.304949130355964271 66.5090517459922665 -1.45789095097540988 -0.304949130355964271 66.5090517459922665 976055109.350540042 myhost 976055109.350540042
FLASER 0 -0.917659043309408617 -0.183878771082098325 66.1714384847169299 -0.917659043309408617 -0.183878771082098325 66.1714384847169299 976055105.140115976 myhost 976055105.140115976
FLASER 0 0.0884836775801188663 -0.0547734495704924051 66.0455595164707745 0.0884836775801188663 -0.0547734495704924051 66.0455595164707745 976055097.34010005 myhost 976055097.34010005
FLASER 0 1.07277836497607715 0.0300019202013915298 66.0754988892595208 1.07277836497607715 0.0300019202013915298 66.0754988892595208 976055094.853000045 myhost 976055094.853000045
FLASER 0 1.70276850372039568 0.0891381431993741036 66.0639856864092962 1.70276850372039568 0.0891381431993741036 66.0639856864092962 976055092.617745042 myhost 976055092.617745042
FLASER 0 2.69897760054404312 0.139628023527410633 66.1236674910551017 2.69897760054404312 0.139628023527410633 66.1236674910551017 976055088.979411006 myhost 976055088.979411006
FLASER 0 3.34656395204663148 0.199762763828827627 66.0600272771556547 3.34656395204663148 0.199762763828827627 66.0600272771556547 976055085.644927025 myhost 976055085.644927025
FLASER 0 4.33458983041183643 0.280576668582115107 65.9947454747452724 4.33458983041183643 0.280576668582115107 65.9947454747452724 976055082.309628963 myhost 976055082.309628963
FLASER 0 5.29645433216989936 0.335973052355723556 66.1108876596316009 5.29645433216989936 0.335973052355723556 66.1108876596316009 976055078.620252967 myhost 976055078.620252967
FLASER 0 6.15546607951494096 0.392768641810178898 66.0213943582877505 6.15546607951494096 0.392768641810178898 66.0213943582877505 976055075.474328995 myhost 976055075.474328995
FLASER 0 6.73249525348456146 0.406924230026497136 66.0470395588366159 6.73249525348456146 0.406924230026497136 66.0470395588366159 976055074.97468996 myhost 976055074.97468996
FLASER 0 6.47983560701708772 0.378466553031702402 66.0964880355338948 6.47983560701708772 0.378466553031702402 66.0964880355338948 976055074.102228999 myhost 976055074.102228999
FLASER 0 7.43574803356062564 0.451759337988983711 65.8666782977844889 7.43574803356062564 0.451759337988983711 65.8666782977844889 976055070.368702054 myhost 976055070.368702054
FLASER 0 8.03715531736201605 0.100558662265649246 65.3290061944827727 8.03715531736201605 0.100558662265649246 65.3290061944827727 976055066.465705037 myhost 976055066.465705037
FLASER 0 8.42323758317633065 -0.212729454062385942 65.2599738453883447 8.42323758317633065 -0.212729454062385942 65.2599738453883447 976055063.547973037 myhost 976055063.547973037
FLASER 0 9.07586647883459108 -0.842253478883104645 65.1582795385433684 9.07586647883459108 -0.842253478883104645 65.1582795385433684 976055060.145365 myhost 976055060.145365
FLASER 0 9.73843629572938596 -1.63453352235486693 65.2808160644562179 9.73843629572938596 -1.63453352235486693 65.2808160644562179 976055056.656787038 myhost 976055056.656787038
FLASER 0 10.4953645528039132 -2.35377485422724408 65.425691177953766 10.4953645528039132 -2.35377485422724408 65.425691177953766 976055052.935650945 myhost 976055052.935650945
FLASER 0 11.30324817061644 -2.76534567045399493 65.0567103402236171 11.30324817061644 -2.76534567045399493 65.0567103402236171 976055048.853126049 myhost 976055048.853126049
FLASER 0 11.520762784803523 -3.64490244507043393 64.6472512768510228 11.520762784803523 -3.64490244507043393 64.6472512768510228 976055043.689978004 myhost 976055043.689978004
FLASER 0 11.6629597158036802 -4.2712115035875744 64.6383158389056689 11.6629597158036802 -4.2712115035875744 64.6383158389056689 976055042.32001996 myhost 976055042.32001996
FLASER 0 11.8540241530229409 -5.2380199023157612 64.6022987450052852 11.8540241530229409 -5.2380199023157612 64.6022987450052852 976055037.930626035 myhost 976055037.930626035
FLASER 0 12.0395427504247419 -6.24933394343929827 64.5796529164993984 12.0395427504247419 -6.24933394343929827 64.5796529164993984 976055033.765939951 myhost 976055033.765939951
FLASER 0 12.2158505469632157 -7.25871313203553559 64.5885445152214999 12.2158505469632157 -7.25871313203553559 64.5885445152214999 976055030.156402946 myhost 976055030.156402946
FLASER 0 12.3701256620499116 -8.23405963168846355 64.5990909956724408 12.3701256620499116 -8.23405963168846355 64.5990909956724408 976055026.677852035 myhost 976055026.677852035
FLASER 0 12.5137809832385472 -9.22130412927941379 64.5785617672897132 12.5137809832385472 -9.22130412927941379 64.5785617672897132 976055023.28066802 myhost 976055023.28066802
FLASER 0 12.6295535137397081 -9.94510644825773937 64.6089149333205199 12.6295535137397081 -9.94510644825773937 64.6089149333205199 976055021.545390964 myhost 976055021.545390964
FLASER 0 12.7173587493659248 -10.5443008180099564 64.5411742440215477 12.7173587493659248 -10.5443008180099564 64.5411742440215477 976055018.224974036 myhost 976055018.224974036
FLASER 0 12.7973380960997822 -11.5399904147464589 64.4749340111530245 12.7973380960997822 -11.5399904147464589 64.4749340111530245 976055014.869541049 myhost 976055014.869541049
FLASER 0 12.8319772298022059 -12.4419975486193213 64.4394255462433705 12.8319772298022059 -12.4419975486193213 64.4394255462433705 976055011.925019979 myhost 976055011.925019979
FLASER 0 12.8463021901824863 -13.1795289100503528 64.4254942946451052 12.8463021901824863 -13.1795289100503528 64.4254942946451052 976055010.750030041 myhost 976055010.750030041
FLASER 0 12.8442386507410973 -13.2757329806893285 64.425916326085499 12.8442386507410973 -13.2757329806893285 64.425916326085499 976055008.571238041 myhost 976055008.571238041
FLASER 0 12.8134486862254597 -14.2659201147279262 64.3921521708122953 12.8134486862254597 -14.2659201147279262 64.3921521708122953 976055005.912690043 myhost 976055005.912690043
FLASER 0 12.768191309020672 -15.0687835764068883 64.3416330836389392 12.768191309020672 -15.0687835764068883 64.3416330836389392 976055001.885213017 myhost 976055001.885213017
FLASER 0 12.6894395442533678 -16.1124755843785366 64.3670588579710738 12.6894395442533678 -16.1124755843785366 64.3670588579710738 976054998.251942039 myhost 976054998.251942039
FLASER 0 12.61210377638659 -17.1589791742916837 64.3136802584579357 12.61210377638659 -17.1589791742916837 64.3136802584579357 976054994.792529941 myhost 976054994.792529941
FLASER 0 12.5248648900288035 -18.1421686072336747 64.5848180454622849 12.5248648900288035 -18.1421686072336747 64.5848180454622849 976054991.270521045 myhost 976054991.270521045
FLASER 0 12.6674906083195342 -18.982737526570169 64.5749179569162663 12.6674906083195342 -18.982737526570169 64.5749179569162663 976054983.195978999 myhost 976054983.195978999
FLASER 0 12.7350143769691169 -18.9962935719660031 63.6908244501380523 12.7350143769691169 -18.9962935719660031 63.6908244501380523 976054982.965229988 myhost 976054982.965229988
FLASER 0 12.7150179260416198 -18.9797162822629417 64.0588973951257117 12.7150179260416198 -18.9797162822629417 64.0588973951257117 976054982.100491047 myhost 976054982.100491047
FLASER 0 12.7769458926367054 -19.0405231262385293 63.3340202921910063 12.7769458926367054 -19.0405231262385293 63.3340202921910063 976054980.387295961 myhost 976054980.387295961
FLASER 0 12.7694157762295752 -19.0662299012393497 63.1479164800696964 12.7694157762295752 -19.0662299012393497 63.1479164800696964 976054979.721052051 myhost 976054979.721052051
FLASER 0 12.2230366417328167 -19.0883668016770862 62.8139606967302271 12.2230366417328167 -19.0883668016770862 62.8139606967302271 976054975.823194981 myhost 976054975.823194981
FLASER 0 11.2115887443694611 -19.073944851828962 62.8995954161913104 11.2115887443694611 -19.073944851828962 62.8995954161913104 976054972.462164998 myhost 976054972.462164998
FLASER 0 10.3112474393857241 -19.0887862924497078 62.7450358698106498 10.3112474393857241 -19.0887862924497078 62.7450358698106498 976054970.136680961 myhost 976054970.136680961
FLASER 0 9.31691955219771728 -18.9629005105520463 62.6678446941854901 9.31691955219771728 -18.9629005105520463 62.6678446941854901 976054966.272647023 myhost 976054966.272647023
FLASER 0 9.00657945996257858 -18.9082776291243739 62.7050837586289305 9.00657945996257858 -18.9082776291243739 62.7050837586289305 976054964.304126024 myhost 976054964.304126024
FLASER 0 8.00811345999293778 -18.7434259258356413 62.6803943192857673 8.00811345999293778 -18.7434259258356413 62.6803943192857673 976054960.978096008 myhost 976054960.978096008
FLASER 0 7.0688270254958212 -18.6010251166516589 62.7524843035416637 7.0688270254958212 -18.6010251166516589 62.7524843035416637 976054958.722529054 myhost 976054958.722529054
FLASER 0 6.03842014346151945 -18.5435311457743097 62.8214798990770831 6.03842014346151945 -18.5435311457743097 62.8214798990770831 976054954.885220051 myhost 976054954.885220051
FLASER 0 5.04741332578119639 -18.6156825186219415 62.9615683252110898 5.04741332578119639 -18.6156825186219415 62.9615683252110898 976054950.857427955 myhost 976054950.857427955
FLASER 0 4.48794767411543472 -18.6678680259669818 62.9149841710918594 4.48794767411543472 -18.6678680259669818 62.9149841710918594 976054948.22379601 myhost 976054948.22379601
FLASER 0 4.24511223599832554 -18.6339834044291841 62.6473398037442522 4.24511223599832554 -18.6339834044291841 62.6473398037442522 976054947.167870998 myhost 976054947.167870998
FLASER 0 2.99290886309196935 -18.4635364459623155 62.9704882890039954 2.99290886309196935 -18.4635364459623155 62.9704882890039954 976054943.44757998 myhost 976054943.44757998
FLASER 0 2.38563542722198507 -18.5312725086480761 63.0242919861647479 2.38563542722198507 -18.5312725086480761 63.0242919861647479 976054940.717440963 myhost 976054940.717440963
FLASER 0 1.3905500486217699 -18.7556391440549675 63.0958225856052408 1.3905500486217699 -18.7556391440549675 63.0958225856052408 976054937.271082044 myhost 976054937.271082044
FLASER 0 1.10774630200423796 -18.8760678055920827 62.6689539522104795 1.10774630200423796 -18.8760678055920827 62.6689539522104795 976054933.844755054 myhost 976054933.844755054
FLASER 0 0.456531106434171885 -18.822878366733228 62.7786669900613674 0.456531106434171885 -18.822878366733228 62.7786669900613674 976054931.740856051 myhost 976054931.740856051
FLASER 0 -0.551487776701669707 -18.7939324690408682 62.7378702668112211 -0.551487776701669707 -18.7939324690408682 62.7378702668112211 976054928.296638966 myhost 976054928.296638966
FLASER 0 -1.58601291746847228 -18.669389725483974 62.7440412291630167 -1.58601291746847228 -18.669389725483974 62.7440412291630167 976054925.946200013 myhost 976054925.946200013
FLASER 0 -1.80215315622653693 -18.6455959105190097 62.7721768334416055 -1.80215315622653693 -18.6455959105190097 62.7721768334416055 976054923.119822979 myhost 976054923.119822979
FLASER 0 -2.77988752472155998 -18.6038340631657775 62.8762238881322943 -2.77988752472155998 -18.6038340631657775 62.8762238881322943 976054919.633813024 myhost 976054919.633813024
FLASER 0 -3.81189283540257717 -18.6388701839857056 63.009170014651751 -3.81189283540257717 -18.6388701839857056 63.009170014651751 976054916.236240983 myhost 976054916.236240983
FLASER 0 -4.40455450916028823 -18.7596787114341161 62.9597635047767383 -4.40455450916028823 -18.7596787114341161 62.9597635047767383 976054914.186699986 myhost 976054914.186699986
FLASER 0 -4.41027432527151575 -18.8016771025324729 62.4581425344806931 -4.41027432527151575 -18.8016771025324729 62.4581425344806931 976054912.654194951 myhost 976054912.654194951
FLASER 0 -4.44338252559677827 -18.8377325237169266 61.866667492624984 -4.44338252559677827 -18.8377325237169266 61.866667492624984 976054911.273964047 myhost 976054911.273964047
FLASER 0 -4.52095232312204232 -18.6242931425924212 61.3667356166618632 -4.52095232312204232 -18.6242931425924212 61.3667356166618632 976054908.157253981 myhost 976054908.157253981
FLASER 0 -4.64629157712536944 -17.6334310705680473 61.4402625487817886 -4.64629157712536944 -17.6334310705680473 61.4402625487817886 976054904.772310972 myhost 976054904.772310972
FLASER 0 -4.87165740928036328 -16.6656961253337528 61.5399101604945997 -4.87165740928036328 -16.6656961253337528 61.5399101604945997 976054900.841032982 myhost 976054900.841032982
FLASER 0 -5.21185895190879656 -15.7354008242455716 61.6300567814481326 -5.21185895190879656 -15.7354008242455716 61.6300567814481326 976054898.522992015 myhost 976054898.522992015
FLASER 0 -5.58022665443041088 -14.8197520157825959 61.6388800363842151 -5.58022665443041088 -14.8197520157825959 61.6388800363842151 976054894.745792985 myhost 976054894.745792985
FLASER 0 -5.96937860015995359 -13.8927405217582987 61.6569760039955597 -5.96937860015995359 -13.8927405217582987 61.6569760039955597 976054891.428750038 myhost 976054891.428750038
FLASER 0 -6.01574779238527224 -13.7882395183270674 61.6140467411732615 -6.01574779238527224 -13.7882395183270674 61.6140467411732615 976054889.620823979 myhost 976054889.620823979
FLASER 0 -6.06143305966668677 -13.7708916298654351 61.1327701986978838 -6.06143305966668677 -13.7708916298654351 61.1327701986978838 976054887.725877047 myhost 976054887.725877047
FLASER 0 -5.94606271705852407 -12.787507434232305 61.1860331442834138 -5.94606271705852407 -12.787507434232305 61.1860331442834138 976054884.584965944 myhost 976054884.584965944
FLASER 0 -5.89786622727171306 -11.7811407807760382 61.2495624387194297 -5.89786622727171306 -11.7811407807760382 61.2495624387194297 976054881.393949032 myhost 976054881.393949032
FLASER 0 -5.90484288196851637 -10.94283336270232 61.2810847341077789 -5.90484288196851637 -10.94283336270232 61.2810847341077789 976054878.248950005 myhost 976054878.248950005
FLASER 0 -5.95583430302402039 -9.98975472510539042 61.3252836747348908 -5.95583430302402039 -9.98975472510539042 61.3252836747348908 976054873.458250999 myhost 976054873.458250999
FLASER 0 -6.20421653646789473 -9.07804666057471366 61.586769083676927 -6.20421653646789473 -9.07804666057471366 61.586769083676927 976054869.538156033 myhost 976054869.538156033
FLASER 0 -6.22942718558951025 -8.860922086854357 61.1438716047103128 -6.22942718558951025 -8.860922086854357 61.1438716047103128 976054867.813155055 myhost 976054867.813155055
FLASER 0 -6.13885453852061325 -8.06197207019979523 61.1855395449168711 -6.13885453852061325 -8.06197207019979523 61.1855395449168711 976054864.69551003 myhost 976054864.69551003
FLASER 0 -6.06327479749074971 -7.10588188172358048 61.1736777394502127 -6.06327479749074971 -7.10588188172358048 61.1736777394502127 976054861.471557021 myhost 976054861.471557021
FLASER 0 -5.9537747017163154 -6.16310731656196786 61.1962779033233417 -5.9537747017163154 -6.16310731656196786 61.1962779033233417 976054856.720473051 myhost 976054856.720473051
FLASER 0 -6.08455756072188425 -5.46959085003507717 61.469222195238487 -6.08455756072188425 -5.46959085003507717 61.469222195238487 976054852.732033968 myhost 976054852.732033968
FLASER 0 -6.24628299246554075 -4.6623659901224519 61.4782978834561717 -6.24628299246554075 -4.6623659901224519 61.4782978834561717 976054851.265519977 myhost 976054851.265519977
FLASER 0 -6.27043854606592976 -4.57279196652025366 61.4790347360162883 -6.27043854606592976 -4.57279196652025366 61.4790347360162883 976054849.601546049 myhost 976054849.601546049
FLASER 0 -6.45931576823701281 -3.54516681353116203 61.3869325528306931 -6.45931576823701281 -3.54516681353116203 61.3869325528306931 976054846.130668044 myhost 976054846.130668044
FLASER 0 -6.55394121473689673 -3.20106309658515897 61.0516695160111098 -6.55394121473689673 -3.20106309658515897 61.0516695160111098 976054843.974800944 myhost 976054843.974800944
FLASER 0 -6.31028537313266558 -2.81954726769515096 60.6847197352533385 -6.31028537313266558 -2.81954726769515096 60.6847197352533385 976054840.434272051 myhost 976054840.434272051
FLASER 0 -5.97370207788930063 -2.30061666634341844 60.6644133079177621 -5.97370207788930063 -2.30061666634341844 60.6644133079177621 976054837.685853958 myhost 976054837.685853958
FLASER 0 -5.43903566282145778 -1.4740324169795751 60.7156969777917297 -5.43903566282145778 -1.4740324169795751 60.7156969777917297 976054834.162400007 myhost 976054834.162400007
FLASER 0 -4.97112276222441363 -0.630788684130097699 60.7705717034954418 -4.97112276222441363 -0.630788684130097699 60.7705717034954418 976054830.380720019 myhost 976054830.380720019
FLASER 0 -4.58918665999382736 0.0918439834814742395 60.7172573753954907 -4.58918665999382736 0.0918439834814742395 60.7172573753954907 976054827.427181005 myhost 976054827.427181005
FLASER 0 -4.61907743562680118 0.135521461877886912 60.130261623962916 -4.61907743562680118 0.135521461877886912 60.130261623962916 976054825.774587035 myhost 976054825.774587035
FLASER 0 -4.04827354932903383 0.312567606356706107 59.7460609368443514 -4.04827354932903383 0.312567606356706107 59.7460609368443514 976054822.253613949 myhost 976054822.253613949
FLASER 0 -3.03189164083622087 0.0379939117847422972 59.304961577430511 -3.03189164083622087 0.0379939117847422972 59.304961577430511 976054818.412994027 myhost 976054818.412994027
FLASER 0 -2.09658333710791345 -0.358384781119875817 59.3450383939976334 -2.09658333710791345 -0.358384781119875817 59.3450383939976334 976054814.996695995 myhost 976054814.996695995
FLASER 0 -1.36957990115804584 -0.564097754200584944 58.8988894749214822 -1.36957990115804584 -0.564097754200584944 58.8988894749214822 976054810.954632044 myhost 976054810.954632044
FLASER 0 -1.32269843245327312 -0.506499646566460515 58.3778576731212411 -1.32269843245327312 -0.506499646566460515 58.3778576731212411 976054809.582697988 myhost 976054809.582697988
FLASER 0 -1.37383576175696631 -0.503843860285454803 57.8310795526818922 -1.37383576175696631 -0.503843860285454803 57.8310795526818922 976054808.431081057 myhost 976054808.431081057
FLASER 0 -1.235363098467257 -0.578284655336919751 57.241630816778752 -1.235363098467257 -0.578284655336919751 57.241630816778752 976054807.245179057 myhost 976054807.245179057
FLASER 0 -1.20536239720352611 -0.612984291031831274 56.672113529312405 -1.20536239720352611 -0.612984291031831274 56.672113529312405 976054805.851264 myhost 976054805.851264
FLASER 0 -1.22473515815128353 -0.65302605467249708 56.1510354871138588 -1.22473515815128353 -0.65302605467249708 56.1510354871138588 976054804.671064019 myhost 976054804.671064019
FLASER 0 -1.26524677466855295 -0.707672214857766546 55.6089601967902354 -1.26524677466855295 -0.707672214857766546 55.6089601967902354 976054803.48151803 myhost 976054803.48151803
FLASER 0 -1.3155896661791564 -0.720975870923647344 55.0629123792670825 -1.3155896661791564 -0.720975870923647344 55.0629123792670825 976054803.218426943 myhost 976054803.218426943
FLASER 0 -1.18966117212520595 -0.129892158452355383 54.7673549535121325 -1.18966117212520595 -0.129892158452355383 54.7673549535121325 976054797.430328965 myhost 976054797.430328965
FLASER 0 -1.14197513992574162 0.830189426735658653 55.1368983705300764 -1.14197513992574162 0.830189426735658653 55.1368983705300764 976054794.100757003 myhost 976054794.100757003
FLASER 0 -1.35959728779535216 1.59358182457288367 55.2997042006141228 -1.35959728779535216 1.59358182457288367 55.2997042006141228 976054788.693269968 myhost 976054788.693269968
FLASER 0 -1.46549287321141186 2.08265753085951832 54.8319652955148555 -1.46549287321141186 2.08265753085951832 54.8319652955148555 976054785.624017954 myhost 976054785.624017954
FLASER 0 -1.39022761714312315 3.03683112950417833 54.9151944508323808 -1.39022761714312315 3.03683112950417833 54.9151944508323808 976054782.206048012 myhost 976054782.206048012
FLASER 0 -1.339749054044026 3.12449912997962853 55.404184844756891 -1.339749054044026 3.12449912997962853 55.404184844756891 976054779.61056006 myhost 976054779.61056006
FLASER 0 -1.31542327151429372 3.18188509013493848 55.9209689331974289 -1.31542327151429372 3.18188509013493848 55.9209689331974289 976054778.401016951 myhost 976054778.401016951
FLASER 0 -1.31049792502878248 3.23198083833207317 56.4323243072440093 -1.31049792502878248 3.23198083833207317 56.4323243072440093 976054775.608937979 myhost 976054775.608937979
FLASER 0 -1.31312905239154842 3.26389266663208533 56.6712056871627183 -1.31312905239154842 3.26389266663208533 56.6712056871627183 976054773.719692945 myhost 976054773.719692945
FLASER 0 -1.31987373728109447 3.20581850216581632 56.1442794573066877 -1.31987373728109447 3.20581850216581632 56.1442794573066877 976054772.462991953 myhost 976054772.462991953
FLASER 0 -1.35829861270563201 3.16708384839231361 55.5942029297689757 -1.35829861270563201 3.16708384839231361 55.5942029297689757 976054771.245118976 myhost 976054771.245118976
FLASER 0 -1.42055106406244858 3.14117671008996702 55.0746851009767369 -1.42055106406244858 3.14117671008996702 55.0746851009767369 976054770.799499989 myhost 976054770.799499989
FLASER 0 -1.43625085669342067 3.14044243243010568 54.526072036107152 -1.43625085669342067 3.14044243243010568 54.526072036107152 976054768.809118986 myhost 976054768.809118986
FLASER 0 -1.50232288428146021 3.22018260882483087 53.9820800116593418 -1.50232288428146021 3.22018260882483087 53.9820800116593418 976054767.650089025 myhost 976054767.650089025
FLASER 0 -1.51910778149790904 3.25892190089734157 53.4795494644688532 -1.51910778149790904 3.25892190089734157 53.4795494644688532 976054766.407819033 myhost 976054766.407819033
FLASER 0 -1.5203292908522974 3.30644753618948872 52.9036010403742196 -1.5203292908522974 3.30644753618948872 52.9036010403742196 976054765.207963943 myhost 976054765.207963943
FLASER 0 -1.47898631143094583 3.35319859413226196 52.3775230634824993 -1.47898631143094583 3.35319859413226196 52.3775230634824993 976054764.324916959 myhost 976054764.324916959
FLASER 0 -1.36494970569264829 2.84392752903198964 51.910077683393979 -1.36494970569264829 2.84392752903198964 51.910077683393979 976054761.336140037 myhost 976054761.336140037
FLASER 0 -1.359718225718342 2.10596263376437687 51.860304446724875 -1.359718225718342 2.10596263376437687 51.860304446724875 976054757.583170056 myhost 976054757.583170056
FLASER 0 -1.33921142963555151 1.07571781232855201 51.8791702375332378 -1.33921142963555151 1.07571781232855201 51.8791702375332378 976054754.286677957 myhost 976054754.286677957
FLASER 0 -1.22983709496231564 0.107106285433034687 51.6024537232321592 -1.22983709496231564 0.107106285433034687 51.6024537232321592 976054750.709782958 myhost 976054750.709782958
FLASER 0 -1.21815627345899236 0.0702811453368632211 51.0776121200062647 -1.21815627345899236 0.0702811453368632211 51.0776121200062647 976054748.924438953 myhost 976054748.924438953
FLASER 0 -1.16717066379195145 0.0337886236631000786 50.5973050393434463 -1.16717066379195145 0.0337886236631000786 50.5973050393434463 976054747.426018953 myhost 976054747.426018953
FLASER 0 -1.37066484990413073 0.00237396553103511737 50.1939590758281184 -1.37066484990413073 0.00237396553103511737 50.1939590758281184 976054745.554749966 myhost 976054745.554749966
FLASER 0 -2.47158735422388354 0.110251009130498512 50.2477046515350381 -2.47158735422388354 0.110251009130498512 50.2477046515350381 976054741.513214946 myhost 976054741.513214946
FLASER 0 -3.2613284431817644 0.0659855833083727306 50.2526493196424511 -3.2613284431817644 0.0659855833083727306 50.2526493196424511 976054738.624726057 myhost 976054738.624726057
FLASER 0 -4.11188108604529567 0.0367955978699152295 50.2980091800357343 -4.11188108604529567 0.0367955978699152295 50.2980091800357343 976054735.779696941 myhost 976054735.779696941
FLASER 0 -4.69987358300749314 0.150496848331389765 50.2552997874421692 -4.69987358300749314 0.150496848331389765 50.2552997874421692 976054733.49290204 myhost 976054733.49290204
FLASER 0 -5.68422603058308784 0.12784929978073481 50.2669514959132897 -5.68422603058308784 0.12784929978073481 50.2669514959132897 976054730.350921035 myhost 976054730.350921035
FLASER 0 -6.63702992542160164 0.0780352678465114497 50.3498252314604642 -6.63702992542160164 0.0780352678465114497 50.3498252314604642 976054727.772779942 myhost 976054727.772779942
FLASER 0 -6.92012413961632955 0.0493964063263906683 50.2085880507040585 -6.92012413961632955 0.0493964063263906683 50.2085880507040585 976054725.293645024 myhost 976054725.293645024
FLASER 0 -6.93542423385483886 0.0158963343235052242 49.6826693460143005 -6.93542423385483886 0.0158963343235052242 49.6826693460143005 976054723.764201045 myhost 976054723.764201045
FLASER 0 -7.01546099376580923 -0.0921931906810310592 49.1081779077729905 -7.01546099376580923 -0.0921931906810310592 49.1081779077729905 976054722.499624968 myhost 976054722.499624968
FLASER 0 -7.0521374960824561 0.101527202929192345 48.6421058577294119 -7.0521374960824561 0.101527202929192345 48.6421058577294119 976054720.219861031 myhost 976054720.219861031
FLASER 0 -7.0290155884766099 1.1460967880883699 48.6951861719258616 -7.0290155884766099 1.1460967880883699 48.6951861719258616 976054716.412511945 myhost 976054716.412511945
FLASER 0 -7.05277588846168157 1.64390435420289327 48.6764706656612844 -7.05277588846168157 1.64390435420289327 48.6764706656612844 976054714.678264022 myhost 976054714.678264022
FLASER 0 -7.02741440499008885 2.54940196941325992 48.7051233028110602 -7.02741440499008885 2.54940196941325992 48.7051233028110602 976054711.615972996 myhost 976054711.615972996
FLASER 0 -6.99424283118164514 3.34839763468223062 49.0879391421509226 -6.99424283118164514 3.34839763468223062 49.0879391421509226 976054706.838539958 myhost 976054706.838539958
FLASER 0 -6.9642640233961508 3.38394691060927544 49.6140640256544572 -6.9642640233961508 3.38394691060927544 49.6140640256544572 976054705.58256197 myhost 976054705.58256197
FLASER 0 -6.95055648378601454 3.41611306929074265 50.1161220275740646 -6.95055648378601454 3.41611306929074265 50.1161220275740646 976054703.249981046 myhost 976054703.249981046
FLASER 0 -6.94855044568019675 3.41695687738425224 50.2192934095137105 -6.94855044568019675 3.41695687738425224 50.2192934095137105 976054700.399083972 myhost 976054700.399083972
FLASER 0 -6.96759268985533353 3.41034075482029309 49.8857947309191587 -6.96759268985533353 3.41034075482029309 49.8857947309191587 976054699.705500007 myhost 976054699.705500007
FLASER 0 -7.0021227738321512 3.37413557745050241 49.3587858801494477 -7.0021227738321512 3.37413557745050241 49.3587858801494477 976054698.452173948 myhost 976054698.452173948
FLASER 0 -7.06514699667117441 3.36703358950852527 48.7672760714634563 -7.06514699667117441 3.36703358950852527 48.7672760714634563 976054697.367717981 myhost 976054697.367717981
FLASER 0 -7.13247076759319842 3.38415046798325703 48.2433489154336428 -7.13247076759319842 3.38415046798325703 48.2433489154336428 976054696.295132995 myhost 976054696.295132995
FLASER 0 -7.13933818924709662 3.4683943999960456 47.5284045493542493 -7.13933818924709662 3.4683943999960456 47.5284045493542493 976054695.748600006 myhost 976054695.748600006
FLASER 0 -7.14170250061290357 3.41367191584468355 47.6165718013665114 -7.14170250061290357 3.41367191584468355 47.6165718013665114 976054695.119143963 myhost 976054695.119143963
FLASER 0 -7.14328714742095183 3.50945259993463798 47.0662254287955619 -7.14328714742095183 3.50945259993463798 47.0662254287955619 976054693.352246046 myhost 976054693.352246046
FLASER 0 -7.13878512291547462 3.53106060202547756 46.5241999823475396 -7.13878512291547462 3.53106060202547756 46.5241999823475396 976054692.252109051 myhost 976054692.252109051
FLASER 0 -7.09797021169679354 3.57466504838439025 45.9970570439533191 -7.09797021169679354 3.57466504838439025 45.9970570439533191 976054691.621176004 myhost 976054691.621176004
FLASER 0 -7.04597585848135122 3.46864143207562448 45.5453289193292008 -7.04597585848135122 3.46864143207562448 45.5453289193292008 976054688.421062946 myhost 976054688.421062946
FLASER 0 -7.08985803380830415 2.51390203878528107 45.5382532489659368 -7.08985803380830415 2.51390203878528107 45.5382532489659368 976054684.928572059 myhost 976054684.928572059
FLASER 0 -7.13998949224500024 1.55092263134172148 45.5769436696287897 -7.13998949224500024 1.55092263134172148 45.5769436696287897 976054681.237717032 myhost 976054681.237717032
FLASER 0 -7.09822717720335827 0.894020650606867973 45.6049476600513017 -7.09822717720335827 0.894020650606867973 45.6049476600513017 976054678.908885002 myhost 976054678.908885002
FLASER 0 -7.04880888589093058 -0.125761244070413142 45.582288419020152 -7.04880888589093058 -0.125761244070413142 45.582288419020152 976054675.470793962 myhost 976054675.470793962
FLASER 0 -7.07184504525894386 -1.16626318591889722 45.4436407208333009 -7.07184504525894386 -1.16626318591889722 45.4436407208333009 976054671.891453028 myhost 976054671.891453028
FLASER 0 -7.102913976797403 -2.1038438368501855 45.4164279903515862 -7.102913976797403 -2.1038438368501855 45.4164279903515862 976054667.773195028 myhost 976054667.773195028
FLASER 0 -7.05949115329748533 -2.10282836004951523 44.9032485551956029 -7.05949115329748533 -2.10282836004951523 44.9032485551956029 976054667.295349002 myhost 976054667.295349002
FLASER 0 -7.03124966484003533 -2.16610298089729358 44.354983810688033 -7.03124966484003533 -2.16610298089729358 44.354983810688033 976054666.105666995 myhost 976054666.105666995
FLASER 0 -7.96391027379942429 -2.11574546957507525 43.8999157752364724 -7.96391027379942429 -2.11574546957507525 43.8999157752364724 976054660.611902952 myhost 976054660.611902952
FLASER 0 -8.97084354043730769 -1.99623287975552777 44.2730470609712938 -8.97084354043730769 -1.99623287975552777 44.2730470609712938 976054655.81843102 myhost 976054655.81843102
