FLASER 0 -0.316597 0.107861 81.635 -0.316597 0.107861 81.635 976055541.979699969 myhost 976055541.979699969
FLASER 0 -0.170999973230229613 0.110053435758385276 81.6160900934294773 -0.170999973230229613 0.110053435758385276 81.6160900934294773 976055541.100237966 myhost 976055541.100237966
FLASER 0 -1.07908081891640828 0.257200836100199115 81.8280159202890331 -1.07908081891640828 0.257200836100199115 81.8280159202890331 976055536.721703053 myhost 976055536.721703053
FLASER 0 -1.19163651457180686 0.262995853950359793 82.3267956349841086 -1.19163651457180686 0.262995853950359793 82.3267956349841086 976055533.945698023 myhost 976055533.945698023
FLASER 0 -1.15818377153681751 0.303972596748438462 82.8568847955467334 -1.15818377153681751 0.303972596748438462 82.8568847955467334 976055532.637850046 myhost 976055532.637850046
FLASER 0 -1.3230219061877857 0.298197022307515047 83.3342279530918972 -1.3230219061877857 0.298197022307515047 83.3342279530918972 976055532.540510058 myhost 976055532.540510058
FLASER 0 -1.19107650723490233 0.263164133848702797 82.7375405808764981 -1.19107650723490233 0.263164133848702797 82.7375405808764981 976055532.527529001 myhost 976055532.527529001
FLASER 0 -1.23031185952581712 0.0352181735951748939 83.3409519937286092 -1.23031185952581712 0.0352181735951748939 83.3409519937286092 976055528.370638967 myhost 976055528.370638967
FLASER 0 -1.11591747629529014 -0.970145321162397045 83.2497390113644684 -1.11591747629529014 -0.970145321162397045 83.2497390113644684 976055524.895115972 myhost 976055524.895115972
FLASER 0 -1.18027748853380898 -1.50860040380001248 83.2599353686423598 -1.18027748853380898 -1.50860040380001248 83.2599353686423598 976055522.761944056 myhost 976055522.761944056
FLASER 0 -1.18457022418951041 -2.37710030155459728 83.2080989474571879 -1.18457022418951041 -2.37710030155459728 83.2080989474571879 976055519.400673985 myhost 976055519.400673985
FLASER 0 -1.3962541399698325 -3.3161257925444283 83.1627092254391016 -1.3962541399698325 -3.3161257925444283 83.1627092254391016 976055518.25672996 myhost 976055518.25672996
FLASER 0 -1.51203741427739535 -4.34927057453719357 83.1626630293526432 -1.51203741427739535 -4.34927057453719357 83.1626630293526432 976055512.837046981 myhost 976055512.837046981
FLASER 0 -1.54415695081809923 -5.0445073120546926 83.1133439497958477 -1.54415695081809923 -5.0445073120546926 83.1133439497958477 976055509.580526948 myhost 976055509.580526948
FLASER 0 -1.76952320665136487 -6.02498275219144031 83.166023760681469 -1.76952320665136487 -6.02498275219144031 83.166023760681469 976055508.909240007 myhost 976055508.909240007
FLASER 0 -1.66287694046630929 -5.42957871985146578 83.0659571320601771 -1.66287694046630929 -5.42957871985146578 83.0659571320601771 976055508.550624967 myhost 976055508.550624967
FLASER 0 -1.83069975448646671 -6.32681010059697346 83.1136835995441601 -1.83069975448646671 -6.32681010059697346 83.1136835995441601 976055504.83040297 myhost 976055504.83040297
FLASER 0 -2.00046808860784253 -7.25515995925680013 83.0687673585246529 -2.00046808860784253 -7.25515995925680013 83.0687673585246529 976055503.414610028 myhost 976055503.414610028
FLASER 0 -2.19893995301051115 -8.2207075996580663 83.1145600135220377 -2.19893995301051115 -8.2207075996580663 83.1145600135220377 976055498.876471043 myhost 976055498.876471043
FLASER 0 -2.48736404973770941 -9.27404715114118616 83.0407284935198078 -2.48736404973770941 -9.27404715114118616 83.0407284935198078 976055494.397979975 myhost 976055494.397979975
FLASER 0 -2.50319332821480334 -10.2727560139797021 83.3430352469596301 -2.50319332821480334 -10.2727560139797021 83.3430352469596301 976055490.364580989 myhost 976055490.364580989
FLASER 0 -2.44845288365336655 -11.3482394003720444 83.2210488267607218 -2.44845288365336655 -11.3482394003720444 83.2210488267607218 976055486.789108992 myhost 976055486.789108992
FLASER 0 -2.43180134664082859 -12.4074082759681872 83.3408311420286623 -2.43180134664082859 -12.4074082759681872 83.3408311420286623 976055483.134155035 myhost 976055483.134155035
FLASER 0 -2.35640848180172835 -13.43981690032739 83.1967497739897937 -2.35640848180172835 -13.43981690032739 83.1967497739897937 976055479.47656095 myhost 976055479.47656095
FLASER 0 -2.39734828172827896 -14.0671190278133125 83.192869687061318 -2.39734828172827896 -14.0671190278133125 83.192869687061318 976055478.906800032 myhost 976055478.906800032
FLASER 0 -2.24800416070465925 -13.8387535665619037 83.422155570829915 -2.24800416070465925 -13.8387535665619037 83.422155570829915 976055478.67702198 myhost 976055478.67702198
FLASER 0 -2.40280212386556435 -14.5444662787919246 83.3420474807087288 -2.40280212386556435 -14.5444662787919246 83.3420474807087288 976055475.281986952 myhost 976055475.281986952
FLASER 0 -2.37370691941818635 -15.5167391813290028 83.2786730226725922 -2.37370691941818635 -15.5167391813290028 83.2786730226725922 976055473.919082999 myhost 976055473.919082999
FLASER 0 -2.310602463264261 -16.4823733847989118 83.0789005706128023 -2.310602463264261 -16.4823733847989118 83.0789005706128023 976055469.748039961 myhost 976055469.748039961
FLASER 0 -2.22662064168115759 -16.5149220940680586 82.5369024883603259 -2.22662064168115759 -16.5149220940680586 82.5369024883603259 976055466.453837991 myhost 976055466.453837991
FLASER 0 -2.1817190553180188 -16.567093740512103 82.0357394089349583 -2.1817190553180188 -16.567093740512103 82.0357394089349583 976055465.504089952 myhost 976055465.504089952
FLASER 0 -2.82635055384819989 -16.6161621297277691 81.5947315406281177 -2.82635055384819989 -16.6161621297277691 81.5947315406281177 976055461.446989059 myhost 976055461.446989059
FLASER 0 -3.86874105397089707 -16.5104046796899198 81.6064959599933673 -3.86874105397089707 -16.5104046796899198 81.6064959599933673 976055457.44817102 myhost 976055457.44817102
FLASER 0 -4.91323770468248977 -16.4354260588542722 81.5862771130864957 -4.91323770468248977 -16.4354260588542722 81.5862771130864957 976055453.926208019 myhost 976055453.926208019
FLASER 0 -5.94092731010216824 -16.3107842078416674 81.5759392960786869 -5.94092731010216824 -16.3107842078416674 81.5759392960786869 976055450.213881969 myhost 976055450.213881969
FLASER 0 -6.88568492507912921 -16.2347525920313451 81.3911140986294726 -6.88568492507912921 -16.2347525920313451 81.3911140986294726 976055446.14379096 myhost 976055446.14379096
FLASER 0 -6.95675849361698706 -16.2392900939296077 80.894742876500402 -6.95675849361698706 -16.2392900939296077 80.894742876500402 976055445.652809978 myhost 976055445.652809978
FLASER 0 -6.99687975983222898 -16.2720839629332268 80.3270070124610243 -6.99687975983222898 -16.2720839629332268 80.3270070124610243 976055445.645979047 myhost 976055445.645979047
FLASER 0 -6.93464811026877381 -15.7556507481988586 79.9739064379244269 -6.93464811026877381 -15.7556507481988586 79.9739064379244269 976055441.582537055 myhost 976055441.582537055
FLASER 0 -6.8233674565605158 -14.8246697679437442 80.0195543341481255 -6.8233674565605158 -14.8246697679437442 80.0195543341481255 976055437.667148948 myhost 976055437.667148948
FLASER 0 -6.70224046815442165 -13.8707937934913961 80.0532831000975307 -6.70224046815442165 -13.8707937934913961 80.0532831000975307 976055433.599251032 myhost 976055433.599251032
FLASER 0 -6.73296397266653379 -12.8991925838335604 80.1072373641616196 -6.73296397266653379 -12.8991925838335604 80.1072373641616196 976055429.681280971 myhost 976055429.681280971
FLASER 0 -6.77824465892746364 -11.8336103903713799 80.1582257012697852 -6.77824465892746364 -11.8336103903713799 80.1582257012697852 976055425.711969972 myhost 976055425.711969972
FLASER 0 -6.92121448957247587 -10.889996054073471 80.2411879689457521 -6.92121448957247587 -10.889996054073471 80.2411879689457521 976055422.191877961 myhost 976055422.191877961
FLASER 0 -7.03510694352646748 -9.8413400335032275 79.8949127914378465 -7.03510694352646748 -9.8413400335032275 79.8949127914378465 976055418.31693995 myhost 976055418.31693995
FLASER 0 -7.06623252117013667 -9.78838802669889674 79.4655024749218626 -7.06623252117013667 -9.78838802669889674 79.4655024749218626 976055417.471271992 myhost 976055417.471271992
FLASER 0 -7.11345337807182343 -9.78750065949290793 78.9568085164643065 -7.11345337807182343 -9.78750065949290793 78.9568085164643065 976055417.466006041 myhost 976055417.466006041
FLASER 0 -7.11599105454229974 -9.72012398772462305 78.3478773952775498 -7.11599105454229974 -9.72012398772462305 78.3478773952775498 976055414.912289023 myhost 976055414.912289023
FLASER 0 -7.09811016809528184 -9.69359494245716569 77.8159187284145162 -7.09811016809528184 -9.69359494245716569 77.8159187284145162 976055413.651309967 myhost 976055413.651309967
FLASER 0 -7.08173044565148579 -9.69244598277981062 77.2937189779566154 -7.08173044565148579 -9.69244598277981062 77.2937189779566154 976055413.193675041 myhost 976055413.193675041
FLASER 0 -7.08766988276500065 -10.041055316014571 76.8989961722586912 -7.08766988276500065 -10.041055316014571 76.8989961722586912 976055408.867391944 myhost 976055408.867391944
FLASER 0 -7.05726862283144207 -10.925187200479094 76.9203048029090155 -7.05726862283144207 -10.925187200479094 76.9203048029090155 976055405.769880056 myhost 976055405.769880056
FLASER 0 -6.95885280615134327 -11.7975442617573325 76.9961887193678933 -6.95885280615134327 -11.7975442617573325 76.9961887193678933 976055402.513499975 myhost 976055402.513499975
FLASER 0 -6.97213580752563811 -12.7336934511276887 77.1732735289781004 -6.97213580752563811 -12.7336934511276887 77.1732735289781004 976055400.819437027 myhost 976055400.819437027
FLASER 0 -6.93692274641951734 -13.5948942669456905 77.1300383833355454 -6.93692274641951734 -13.5948942669456905 77.1300383833355454 976055396.659829974 myhost 976055396.659829974
FLASER 0 -6.61363785516683222 -14.6133405294087968 77.3576471836933734 -6.61363785516683222 -14.6133405294087968 77.3576471836933734 976055392.265207052 myhost 976055392.265207052
FLASER 0 -6.34088762602649592 -15.4190844891722314 77.2754082998245337 -6.34088762602649592 -15.4190844891722314 77.2754082998245337 976055388.668030024 myhost 976055388.668030024
FLASER 0 -6.32157479781955089 -15.827456982653521 77.2508016002315969 -6.32157479781955089 -15.827456982653521 77.2508016002315969 976055388.12946105 myhost 976055388.12946105
FLASER 0 -6.07564620737831262 -16.4899775628147296 76.8471791693290101 -6.07564620737831262 -16.4899775628147296 76.8471791693290101 976055384.399888992 myhost 976055384.399888992
FLASER 0 -6.04218751640869467 -16.4714509542613925 76.2343514806293143 -6.04218751640869467 -16.4714509542613925 76.2343514806293143 976055383.861714005 myhost 976055383.861714005
FLASER 0 -6.0283675754302255 -16.5422960599702513 75.7295723487682864 -6.0283675754302255 -16.5422960599702513 75.7295723487682864 976055383.855666995 myhost 976055383.855666995
FLASER 0 -6.04393006802128063 -16.5882481508190374 75.1389764222567038 -6.04393006802128063 -16.5882481508190374 75.1389764222567038 976055380.707190037 myhost 976055380.707190037
FLASER 0 -6.01155783419138068 -16.6114045034627189 74.610346932196407 -6.01155783419138068 -16.6114045034627189 74.610346932196407 976055379.426062942 myhost 976055379.426062942
FLASER 0 -6.06186821814505805 -16.6313816665424277 74.0797416181093951 -6.06186821814505805 -16.6313816665424277 74.0797416181093951 976055379.410964012 myhost 976055379.410964012
FLASER 0 -6.10752361990998249 -16.6754019813095731 73.5081435308911466 -6.10752361990998249 -16.6754019813095731 73.5081435308911466 976055376.892222047 myhost 976055376.892222047
FLASER 0 -6.11466013652683138 -16.6411379719945458 73.2532516132937133 -6.11466013652683138 -16.6411379719945458 73.2532516132937133 976055376.348868966 myhost 976055376.348868966
FLASER 0 -6.13923316356931625 -16.6236193260945342 72.7368337129025662 -6.13923316356931625 -16.6236193260945342 72.7368337129025662 976055375.159628987 myhost 976055375.159628987
FLASER 0 -5.62550083138062718 -16.5592640636026545 72.2983469119185429 -5.62550083138062718 -16.5592640636026545 72.2983469119185429 976055371.695567012 myhost 976055371.695567012
FLASER 0 -4.61565737913884 -16.5502186205322666 72.2057610691557699 -4.61565737913884 -16.5502186205322666 72.2057610691557699 976055368.126947999 myhost 976055368.126947999
FLASER 0 -4.41728138465658926 -16.5853372076033132 72.1910818440268116 -4.41728138465658926 -16.5853372076033132 72.1910818440268116 976055367.270462036 myhost 976055367.270462036
FLASER 0 -3.44488570456026366 -16.6258461656720655 72.2701927248371874 -3.44488570456026366 -16.6258461656720655 72.2701927248371874 976055363.762545943 myhost 976055363.762545943
FLASER 0 -2.63527938224850145 -16.5948799949587524 72.1971831088739719 -2.63527938224850145 -16.5948799949587524 72.1971831088739719 976055360.533668041 myhost 976055360.533668041
FLASER 0 -2.26972698530281836 -16.7301709565469494 72.6990216684674522 -2.26972698530281836 -16.7301709565469494 72.6990216684674522 976055358.584476948 myhost 976055358.584476948
FLASER 0 -2.25165231085771689 -16.7848941140070522 73.2141332585263456 -2.25165231085771689 -16.7848941140070522 73.2141332585263456 976055355.750226021 myhost 976055355.750226021
FLASER 0 -2.10978464813256616 -16.3190212038307152 73.6850519464370848 -2.10978464813256616 -16.3190212038307152 73.6850519464370848 976055351.671645999 myhost 976055351.671645999
FLASER 0 -2.02125192562753009 -15.3401869535897806 73.9986918704891821 -2.02125192562753009 -15.3401869535897806 73.9986918704891821 976055347.506800056 myhost 976055347.506800056
FLASER 0 -2.00708449366698849 -15.3478570922074748 74.204313442730367 -2.00708449366698849 -15.3478570922074748 74.204313442730367 976055346.569004059 myhost 976055346.569004059
FLASER 0 -1.96926430107220241 -15.3396847774744867 74.7258071351459989 -1.96926430107220241 -15.3396847774744867 74.7258071351459989 976055344.199849963 myhost 976055344.199849963
FLASER 0 -2.88089187503312028 -14.9644852794253698 75.1199204959839051 -2.88089187503312028 -14.9644852794253698 75.1199204959839051 976055338.630270004 myhost 976055338.630270004
FLASER 0 -3.79623691349500314 -14.7106445228512843 75.3031859915190722 -3.79623691349500314 -14.7106445228512843 75.3031859915190722 976055335.421110988 myhost 976055335.421110988
FLASER 0 -4.71959517155413089 -14.8233674259859427 75.4025020641216912 -4.71959517155413089 -14.8233674259859427 75.4025020641216912 976055331.816817999 myhost 976055331.816817999
FLASER 0 -4.70337131912671413 -14.84482453588722 74.7782002659066762 -4.70337131912671413 -14.84482453588722 74.7782002659066762 976055330.353157997 myhost 976055330.353157997
FLASER 0 -4.7711367552379933 -14.8690735149655566 74.2547856453531949 -4.7711367552379933 -14.8690735149655566 74.2547856453531949 976055329.996062994 myhost 976055329.996062994
FLASER 0 -4.81152421493371296 -14.8890516722315525 73.7422261233092087 -4.81152421493371296 -14.8890516722315525 73.7422261233092087 976055329.975643039 myhost 976055329.975643039
FLASER 0 -4.84757068178540873 -14.8858678988381818 73.1552837609691409 -4.84757068178540873 -14.8858678988381818 73.1552837609691409 976055326.810173988 myhost 976055326.810173988
FLASER 0 -4.88533355091822674 -14.8300638256250821 72.6573786677008968 -4.88533355091822674 -14.8300638256250821 72.6573786677008968 976055325.731735945 myhost 976055325.731735945
FLASER 0 -4.12328461411967417 -14.8572832048378718 72.2115050517578112 -4.12328461411967417 -14.8572832048378718 72.2115050517578112 976055321.97813499 myhost 976055321.97813499
FLASER 0 -3.08578352113528442 -14.9823737520254738 72.0537371427458311 -3.08578352113528442 -14.9823737520254738 72.0537371427458311 976055317.827083945 myhost 976055317.827083945
FLASER 0 -3.07471132791896551 -15.0568281287489629 72.546578180644687 -3.07471132791896551 -15.0568281287489629 72.546578180644687 976055315.59227705 myhost 976055315.59227705
FLASER 0 -2.37730751322844513 -14.6888869262541633 73.0026355059819565 -2.37730751322844513 -14.6888869262541633 73.0026355059819565 976055309.679553032 myhost 976055309.679553032
FLASER 0 -2.34729902510025923 -14.7016017013598077 73.5198160592371295 -2.34729902510025923 -14.7016017013598077 73.5198160592371295 976055307.240937948 myhost 976055307.240937948
FLASER 0 -2.37677169877710837 -14.4375776150603894 74.0094989961940826 -2.37677169877710837 -14.4375776150603894 74.0094989961940826 976055303.320996046 myhost 976055303.320996046
FLASER 0 -2.44375184261208123 -13.2923623652101277 73.876057120135016 -2.44375184261208123 -13.2923623652101277 73.876057120135016 976055299.490813017 myhost 976055299.490813017
FLASER 0 -2.45598005584845458 -12.6350703648523552 73.8579023230602729 -2.45598005584845458 -12.6350703648523552 73.8579023230602729 976055297.796028018 myhost 976055297.796028018
FLASER 0 -2.55878395798261549 -11.7281567109696692 73.7267969670777461 -2.55878395798261549 -11.7281567109696692 73.7267969670777461 976055293.946954012 myhost 976055293.946954012
FLASER 0 -2.4070843061114382 -10.821921678700102 73.795580699119057 -2.4070843061114382 -10.821921678700102 73.795580699119057 976055290.159932971 myhost 976055290.159932971
FLASER 0 -2.41838919114557127 -9.74050979520594851 73.9619930754107031 -2.41838919114557127 -9.74050979520594851 73.9619930754107031 976055286.62985599 myhost 976055286.62985599
FLASER 0 -2.38169775779032911 -8.70067351237198139 73.6296677370315393 -2.38169775779032911 -8.70067351237198139 73.6296677370315393 976055280.498893023 myhost 976055280.498893023
FLASER 0 -2.0384289988959301 -7.74234799926042072 73.6032646433203439 -2.0384289988959301 -7.74234799926042072 73.6032646433203439 976055278.759865046 myhost 976055278.759865046
FLASER 0 -1.85416758430231798 -6.97593571561029435 74.0120117333478191 -1.85416758430231798 -6.97593571561029435 74.0120117333478191 976055272.878000021 myhost 976055272.878000021
FLASER 0 -1.95765761710014741 -6.75818475573430977 73.8504212407312366 -1.95765761710014741 -6.75818475573430977 73.8504212407312366 976055270.47024703 myhost 976055270.47024703
FLASER 0 -1.86803641255411401 -6.46454274257056305 73.495963646696211 -1.86803641255411401 -6.46454274257056305 73.495963646696211 976055266.705675006 myhost 976055266.705675006
FLASER 0 -1.63147964140454649 -5.65747836874982468 73.593089179329283 -1.63147964140454649 -5.65747836874982468 73.593089179329283 976055262.730543017 myhost 976055262.730543017
FLASER 0 -1.56509420729256155 -5.35678919528193997 73.9756377653935289 -1.56509420729256155 -5.35678919528193997 73.9756377653935289 976055260.37985599 myhost 976055260.37985599
FLASER 0 -1.49735608427262545 -5.2882620601344339 74.5774163120296691 -1.49735608427262545 -5.2882620601344339 74.5774163120296691 976055258.402083039 myhost 976055258.402083039
FLASER 0 -1.48824745637708444 -5.207375984571601 75.0811173070838436 -1.48824745637708444 -5.207375984571601 75.0811173070838436 976055256.213294983 myhost 976055256.213294983
FLASER 0 -2.21400003698319514 -5.23472740517196478 75.5180256913266277 -2.21400003698319514 -5.23472740517196478 75.5180256913266277 976055251.503144026 myhost 976055251.503144026
FLASER 0 -3.04249495551717875 -5.25634889516416504 75.9742030036082241 -3.04249495551717875 -5.25634889516416504 75.9742030036082241 976055246.770267963 myhost 976055246.770267963
FLASER 0 -3.10216477552021663 -5.22851836385710733 76.3862544064888169 -3.10216477552021663 -5.22851836385710733 76.3862544064888169 976055243.659685969 myhost 976055243.659685969
FLASER 0 -3.51828146393746444 -5.91987993005743096 76.4233514708096919 -3.51828146393746444 -5.91987993005743096 76.4233514708096919 976055241.777799964 myhost 976055241.777799964
FLASER 0 -4.29712692775356064 -6.73784338738534672 76.0251003305023687 -4.29712692775356064 -6.73784338738534672 76.0251003305023687 976055237.731385946 myhost 976055237.731385946
FLASER 0 -4.30170079723077414 -6.80459384906873055 75.4602634021382102 -4.30170079723077414 -6.80459384906873055 75.4602634021382102 976055235.523561954 myhost 976055235.523561954
FLASER 0 -4.30858700876110667 -6.85145519213582954 74.9510227934311359 -4.30858700876110667 -6.85145519213582954 74.9510227934311359 976055234.230065942 myhost 976055234.230065942
FLASER 0 -4.33634204851715932 -6.88300427117909308 74.427053716562682 -4.33634204851715932 -6.88300427117909308 74.427053716562682 976055233.793382049 myhost 976055233.793382049
FLASER 0 -4.37501112327466757 -6.90782739651425004 73.8234974348048496 -4.37501112327466757 -6.90782739651425004 73.8234974348048496 976055231.693040967 myhost 976055231.693040967
FLASER 0 -4.44042608321422261 -6.89424843269151388 73.3464270470694544 -4.44042608321422261 -6.89424843269151388 73.3464270470694544 976055230.492491961 myhost 976055230.492491961
FLASER 0 -3.91554154761315365 -6.41325224939173122 73.0714833743086984 -3.91554154761315365 -6.41325224939173122 73.0714833743086984 976055225.895246029 myhost 976055225.895246029
FLASER 0 -3.80199677555241111 -6.21374013397177016 73.5049467638019109 -3.80199677555241111 -6.21374013397177016 73.5049467638019109 976055222.709066033 myhost 976055222.709066033
FLASER 0 -3.5596063829978748 -5.29008695709554555 73.1421090325444823 -3.5596063829978748 -5.29008695709554555 73.1421090325444823 976055218.394152999 myhost 976055218.394152999
FLASER 0 -3.5930658818503689 -5.26342911770088318 72.62599965167297 -3.5930658818503689 -5.26342911770088318 72.62599965167297 976055217.727133036 myhost 976055217.727133036
FLASER 0 -3.26127800496041553 -5.25358203743673524 72.1765174508735754 -3.26127800496041553 -5.25358203743673524 72.1765174508735754 976055214.308895946 myhost 976055214.308895946
FLASER 0 -2.44110727667136196 -5.2871855939303769 72.2991481944711154 -2.44110727667136196 -5.2871855939303769 72.2991481944711154 976055211.113669038 myhost 976055211.113669038
FLASER 0 -2.38721483108468124 -5.34437798023930366 72.7955301820730227 -2.38721483108468124 -5.34437798023930366 72.7955301820730227 976055209.592787027 myhost 976055209.592787027
FLASER 0 -1.5283443354863 -4.88116898683314826 72.9720480574491859 -1.5283443354863 -4.88116898683314826 72.9720480574491859 976055205.807834983 myhost 976055205.807834983
FLASER 0 -1.46737971382015475 -4.87214246061434419 73.3842490678142667 -1.46737971382015475 -4.87214246061434419 73.3842490678142667 976055202.558972001 myhost 976055202.558972001
FLASER 0 -1.48504631455159086 -4.98619644825870356 73.0777928999401638 -1.48504631455159086 -4.98619644825870356 73.0777928999401638 976055198.978778005 myhost 976055198.978778005
FLASER 0 -1.513592675646108 -4.95463183302706689 72.753644359773773 -1.513592675646108 -4.95463183302706689 72.753644359773773 976055198.109827042 myhost 976055198.109827042
FLASER 0 -1.53047784019524413 -4.86574023659712029 72.1642433330807762 -1.53047784019524413 -4.86574023659712029 72.1642433330807762 976055197.51601696 myhost 976055197.51601696
FLASER 0 -1.05138456663500413 -4.92464277910407677 72.2111502148278674 -1.05138456663500413 -4.92464277910407677 72.2111502148278674 976055193.748916984 myhost 976055193.748916984
FLASER 0 -0.0881457403015083601 -5.03339191515427054 72.3250713780307564 -0.0881457403015083601 -5.03339191515427054 72.3250713780307564 976055189.734315991 myhost 976055189.734315991
FLASER 0 -0.0736794903375870558 -5.03594735990754039 72.8493147055467034 -0.0736794903375870558 -5.03594735990754039 72.8493147055467034 976055189.297626972 myhost 976055189.297626972
FLASER 0 -0.0926911444871647838 -5.04686894240497796 73.2617407602543693 -0.0926911444871647838 -5.04686894240497796 73.2617407602543693 976055186.573078036 myhost 976055186.573078036
FLASER 0 0.0301346781403554267 -4.80076087446172384 73.6342463773980285 0.0301346781403554267 -4.80076087446172384 73.6342463773980285 976055183.541175961 myhost 976055183.541175961
FLASER 0 0.213143774034364103 -3.61839179572567948 73.7043101607718256 0.213143774034364103 -3.61839179572567948 73.7043101607718256 976055179.727525949 myhost 976055179.727525949
FLASER 0 0.207908132405400681 -3.29965586459543081 73.2307093833272944 0.207908132405400681 -3.29965586459543081 73.2307093833272944 976055177.782292008 myhost 976055177.782292008
FLASER 0 0.139407414009001834 -3.29929043516543663 72.7137281671869431 0.139407414009001834 -3.29929043516543663 72.7137281671869431 976055175.898149014 myhost 976055175.898149014
FLASER 0 0.173483894056080085 -3.24763393183298765 72.1832257837684637 0.173483894056080085 -3.24763393183298765 72.1832257837684637 976055174.802845955 myhost 976055174.802845955
FLASER 0 0.131243544622015207 -3.26061135341250186 71.7470235401059142 0.131243544622015207 -3.26061135341250186 71.7470235401059142 976055173.916376948 myhost 976055173.916376948
FLASER 0 0.167486351372925252 -3.23209776560414541 71.2277753146901489 0.167486351372925252 -3.23209776560414541 71.2277753146901489 976055173.910642982 myhost 976055173.910642982
FLASER 0 0.23657455059979407 -3.22395326513011016 70.7470190399696861 0.23657455059979407 -3.22395326513011016 70.7470190399696861 976055171.426316023 myhost 976055171.426316023
FLASER 0 0.277345335914276736 -3.22525569423575442 70.1382804704868477 0.277345335914276736 -3.22525569423575442 70.1382804704868477 976055170.165424943 myhost 976055170.165424943
FLASER 0 0.307662124849314544 -3.24516451219136526 69.5377589724598408 0.307662124849314544 -3.24516451219136526 69.5377589724598408 976055170.160078049 myhost 976055170.160078049
FLASER 0 0.21570242842219492 -3.28936783265604804 69.0753632352705864 0.21570242842219492 -3.28936783265604804 69.0753632352705864 976055166.74764502 myhost 976055166.74764502
FLASER 0 -0.816542914431376832 -3.34105993135264923 69.0474907919363403 -0.816542914431376832 -3.34105993135264923 69.0474907919363403 976055162.866490006 myhost 976055162.866490006
FLASER 0 -1.85178443684867555 -3.17026019992555641 69.061002867885648 -1.85178443684867555 -3.17026019992555641 69.061002867885648 976055159.353180051 myhost 976055159.353180051
FLASER 0 -2.91723118098834844 -3.07319144470986894 69.0534564842353547 -2.91723118098834844 -3.07319144470986894 69.0534564842353547 976055155.968999028 myhost 976055155.968999028
FLASER 0 -2.91944313549112566 -3.01829229483515071 69.5668035580084876 -2.91944313549112566 -3.01829229483515071 69.5668035580084876 976055154.460942984 myhost 976055154.460942984
FLASER 0 -2.95280394626484721 -3.07277261820398051 70.1029430825695954 -2.95280394626484721 -3.07277261820398051 70.1029430825695954 976055151.909319997 myhost 976055151.909319997
FLASER 0 -2.94457587946559673 -3.04489445156953753 70.5210183762063565 -2.94457587946559673 -3.04489445156953753 70.5210183762063565 976055150.650611997 myhost 976055150.650611997
FLASER 0 -2.95466292318877732 -3.0409472119558365 70.3106843450888874 -2.95466292318877732 -3.0409472119558365 70.3106843450888874 976055147.667597055 myhost 976055147.667597055
FLASER 0 -2.92867238485555736 -2.98403981755629744 69.7692483706537274 -2.92867238485555736 -2.98403981755629744 69.7692483706537274 976055146.829776049 myhost 976055146.829776049
FLASER 0 -2.92354271460718973 -3.21577473870501995 69.2039609520792851 -2.92354271460718973 -3.21577473870501995 69.2039609520792851 976055146.80401504 myhost 976055146.80401504
FLASER 0 -2.93675381161023141 -3.14426471241862515 68.6676892989056711 -2.93675381161023141 -3.14426471241862515 68.6676892989056711 976055144.137766957 myhost 976055144.137766957
FLASER 0 -2.9637425890485658 -3.19063245603210088 68.0523367931499621 -2.9637425890485658 -3.19063245603210088 68.0523367931499621 976055142.835723042 myhost 976055142.835723042
FLASER 0 -2.98701112046494899 -3.11574856090262031 67.5194508629331551 -2.98701112046494899 -3.11574856090262031 67.5194508629331551 976055142.830129027 myhost 976055142.830129027
FLASER 0 -3.01256814788650917 -3.1201811321978532 66.9930807236560639 -3.01256814788650917 -3.1201811321978532 66.9930807236560639 976055140.357509017 myhost 976055140.357509017
FLASER 0 -2.96715537997028322 -3.09695321276980229 66.758049899129233 -2.96715537997028322 -3.09695321276980229 66.758049899129233 976055139.865947008 myhost 976055139.865947008
FLASER 0 -3.01423240303892337 -3.06499461338188883 65.847229237074373 -3.01423240303892337 -3.06499461338188883 65.847229237074373 976055139.766499996 myhost 976055139.766499996
FLASER 0 -3.01526883053037009 -3.11579940360681995 66.2741067167867612 -3.01526883053037009 -3.11579940360681995 66.2741067167867612 976055139.143399954 myhost 976055139.143399954
FLASER 0 -2.92631551478577157 -3.09418800135362249 65.8164139630331135 -2.92631551478577157 -3.09418800135362249 65.8164139630331135 976055136.643805027 myhost 976055136.643805027
FLASER 0 -1.94564772654261353 -3.23338009499427681 65.8747140967865619 -1.94564772654261353 -3.23338009499427681 65.8747140967865619 976055133.395292044 myhost 976055133.395292044
FLASER 0 -1.32580885398077775 -3.36687860660278826 65.8732462712264777 -1.32580885398077775 -3.36687860660278826 65.8732462712264777 976055131.328732967 myhost 976055131.328732967
FLASER 0 -1.33643233965364638 -3.3834596062979494 66.3948406075541868 -1.33643233965364638 -3.3834596062979494 66.3948406075541868 976055128.364465952 myhost 976055128.364465952
FLASER 0 -1.33421264557287289 -3.39432197954775461 66.9132950083222795 -1.33421264557287289 -3.39432197954775461 66.9132950083222795 976055127.468508005 myhost 976055127.468508005
FLASER 0 -1.20240371581473293 -2.78618398598216421 67.3582503394515157 -1.20240371581473293 -2.78618398598216421 67.3582503394515157 976055122.150220037 myhost 976055122.150220037
FLASER 0 -1.24529223701466862 -2.03790511270532182 67.4374598886784895 -1.24529223701466862 -2.03790511270532182 67.4374598886784895 976055120.190618992 myhost 976055120.190618992
FLASER 0 -1.14787211342784223 -1.11614017022364309 67.531435436310133 -1.14787211342784223 -1.11614017022364309 67.531435436310133 976055116.651833057 myhost 976055116.651833057
FLASER 0 -1.2905704601676331 -0.343726666583923424 67.5768888031266783 -1.2905704601676331 -0.343726666583923424 67.5768888031266783 976055112.923218012 myhost 976055112.923218012
FLASER 0 -1.35300151937365865 -0.214454625223025497 67.0468863763867944 -1.35300151937365865 -0.214454625223025497 67.0468863763867944 976055110.740797043 myhost 976055110.740797043
FLASER 0 -1.47953163180309955 -0.247300859548189783 66.5471388570839082 -1.47953163180309955 -0.247300859548189783 66.5471388570839082 976055109.350540042 myhost 976055109.350540042
FLASER 0 -1.0639814224305153 -0.0492836579457148483 66.0829054906217408 -1.0639814224305153 -0.0492836579457148483 66.0829054906217408 976055105.140115976 myhost 976055105.140115976
FLASER 0 -0.0385723007484689087 -0.0607713461216114054 65.9756109074073152 -0.0385723007484689087 -0.0607713461216114054 65.9756109074073152 976055097.34010005 myhost 976055097.34010005
FLASER 0 0.914904777413307779 -0.000461270521186043711 66.0132806745792209 0.914904777413307779 -0.000461270521186043711 66.0132806745792209 976055094.853000045 myhost 976055094.853000045
FLASER 0 1.64311987185188624 0.0515503912420182467 66.0104646637767445 1.64311987185188624 0.0515503912420182467 66.0104646637767445 976055092.617745042 myhost 976055092.617745042
FLASER 0 2.56793170761918388 0.133751110604842849 66.1174678180738624 2.56793170761918388 0.133751110604842849 66.1174678180738624 976055088.979411006 myhost 976055088.979411006
FLASER 0 3.22750461963914237 0.181720089474397134 66.0429932633987562 3.22750461963914237 0.181720089474397134 66.0429932633987562 976055085.644927025 myhost 976055085.644927025
FLASER 0 4.20192105336794963 0.28322630397804005 66.0033463007994925 4.20192105336794963 0.28322630397804005 66.0033463007994925 976055082.309628963 myhost 976055082.309628963
FLASER 0 5.24307658070729676 0.335608832045390049 66.0724251930137143 5.24307658070729676 0.335608832045390049 66.0724251930137143 976055078.620252967 myhost 976055078.620252967
FLASER 0 6.18865758643034969 0.182485718538924563 65.9286910036956613 6.18865758643034969 0.182485718538924563 65.9286910036956613 976055075.474328995 myhost 976055075.474328995
FLASER 0 6.58451871875358741 0.206246777520531444 65.8789800401964101 6.58451871875358741 0.206246777520531444 65.8789800401964101 976055074.97468996 myhost 976055074.97468996
FLASER 0 6.60758417735454451 0.39811833003493563 66.0826655061814705 6.60758417735454451 0.39811833003493563 66.0826655061814705 976055074.102228999 myhost 976055074.102228999
FLASER 0 7.49452917902623916 0.466266294140834092 65.8619822121382867 7.49452917902623916 0.466266294140834092 65.8619822121382867 976055070.368702054 myhost 976055070.368702054
FLASER 0 8.00594444143058936 -0.0119275048167294933 65.2880525929982554 8.00594444143058936 -0.0119275048167294933 65.2880525929982554 976055066.465705037 myhost 976055066.465705037
FLASER 0 8.33022816699477886 -0.313983905945657171 65.2453926124616714 8.33022816699477886 -0.313983905945657171 65.2453926124616714 976055063.547973037 myhost 976055063.547973037
FLASER 0 9.00936315088965678 -1.02635465270518744 65.0587305739391155 9.00936315088965678 -1.02635465270518744 65.0587305739391155 976055060.145365 myhost 976055060.145365
FLASER 0 9.58007772798736212 -1.73201574016873039 65.2166314374003235 9.58007772798736212 -1.73201574016873039 65.2166314374003235 976055056.656787038 myhost 976055056.656787038
FLASER 0 10.3972790186117052 -2.48965666890269377 65.4615518575152038 10.3972790186117052 -2.48965666890269377 65.4615518575152038 976055052.935650945 myhost 976055052.935650945
FLASER 0 11.1085690479857142 -2.93015809257541981 65.0379946191136042 11.1085690479857142 -2.93015809257541981 65.0379946191136042 976055048.853126049 myhost 976055048.853126049
FLASER 0 11.3122701157780803 -3.77554121038294355 64.633106865056476 11.3122701157780803 -3.77554121038294355 64.633106865056476 976055043.689978004 myhost 976055043.689978004
FLASER 0 11.4239952931611235 -4.39529355192796078 64.6261148660076401 11.4239952931611235 -4.39529355192796078 64.6261148660076401 976055042.32001996 myhost 976055042.32001996
FLASER 0 11.593106478631551 -5.3610729287511818 64.5900825425591876 11.593106478631551 -5.3610729287511818 64.5900825425591876 976055037.930626035 myhost 976055037.930626035
FLASER 0 11.7710882626306859 -6.42750209864449484 64.557174749292102 11.7710882626306859 -6.42750209864449484 64.557174749292102 976055033.765939951 myhost 976055033.765939951
FLASER 0 11.8959434897693885 -7.46135310786664974 64.5435944185143882 11.8959434897693885 -7.46135310786664974 64.5435944185143882 976055030.156402946 myhost 976055030.156402946
FLASER 0 12.0178423709795261 -8.45540136587089464 64.5608378463564065 12.0178423709795261 -8.45540136587089464 64.5608378463564065 976055026.677852035 myhost 976055026.677852035
FLASER 0 12.1366417104212001 -9.44231358929453357 64.5444421868435967 12.1366417104212001 -9.44231358929453357 64.5444421868435967 976055023.28066802 myhost 976055023.28066802
FLASER 0 12.2257003430984348 -10.0833017304379631 64.5791649600101465 12.2257003430984348 -10.0833017304379631 64.5791649600101465 976055021.545390964 myhost 976055021.545390964
FLASER 0 12.29749020172566 -10.6435539251889573 64.5110537387332243 12.29749020172566 -10.6435539251889573 64.5110537387332243 976055018.224974036 myhost 976055018.224974036
FLASER 0 12.3737899660981672 -11.6511346599263863 64.4494222417712876 12.3737899660981672 -11.6511346599263863 64.4494222417712876 976055014.869541049 myhost 976055014.869541049
FLASER 0 12.4284702983123747 -12.7437048034593108 64.4313090179725663 12.4284702983123747 -12.7437048034593108 64.4313090179725663 976055011.925019979 myhost 976055011.925019979
FLASER 0 12.4242690414187749 -13.3432658554848427 64.4058946836817512 12.4242690414187749 -13.3432658554848427 64.4058946836817512 976055010.750030041 myhost 976055010.750030041
FLASER 0 12.4425546062357739 -13.4755123704681612 64.4197492942228109 12.4425546062357739 -13.4755123704681612 64.4197492942228109 976055008.571238041 myhost 976055008.571238041
FLASER 0 12.3883846711852836 -14.5195884810514517 64.3739213030236357 12.3883846711852836 -14.5195884810514517 64.3739213030236357 976055005.912690043 myhost 976055005.912690043
FLASER 0 12.3873544135439975 -15.2733556749917341 64.3441588182840292 12.3873544135439975 -15.2733556749917341 64.3441588182840292 976055001.885213017 myhost 976055001.885213017
FLASER 0 12.3103170380090834 -16.2645238448722438 64.3618438557096368 12.3103170380090834 -16.2645238448722438 64.3618438557096368 976054998.251942039 myhost 976054998.251942039
FLASER 0 12.2265213386339795 -17.2819527843930132 64.3002870630066781 12.2265213386339795 -17.2819527843930132 64.3002870630066781 976054994.792529941 myhost 976054994.792529941
FLASER 0 12.1363450935660602 -18.1704092724943678 64.5800592161713496 12.1363450935660602 -18.1704092724943678 64.5800592161713496 976054991.270521045 myhost 976054991.270521045
FLASER 0 12.1969539841773837 -19.1132170066712028 64.5268163951622569 12.1969539841773837 -19.1132170066712028 64.5268163951622569 976054983.195978999 myhost 976054983.195978999
FLASER 0 12.2823621172075708 -19.2583717771101561 63.6661654704791786 12.2823621172075708 -19.2583717771101561 63.6661654704791786 976054982.965229988 myhost 976054982.965229988
FLASER 0 12.2770141085154414 -19.1196537493038896 64.034199193249222 12.2770141085154414 -19.1196537493038896 64.034199193249222 976054982.100491047 myhost 976054982.100491047
FLASER 0 12.3322768537631688 -19.2415380833353495 63.3169058427881382 12.3322768537631688 -19.2415380833353495 63.3169058427881382 976054980.387295961 myhost 976054980.387295961
FLASER 0 12.3459752903400073 -19.2827692270782975 63.1307319304912582 12.3459752903400073 -19.2827692270782975 63.1307319304912582 976054979.721052051 myhost 976054979.721052051
FLASER 0 11.8125167169080463 -19.299915553688944 62.8076694550893535 11.8125167169080463 -19.299915553688944 62.8076694550893535 976054975.823194981 myhost 976054975.823194981
FLASER 0 10.7849592391331441 -19.2381321498022757 62.8846460684353374 10.7849592391331441 -19.2381321498022757 62.8846460684353374 976054972.462164998 myhost 976054972.462164998
FLASER 0 9.92682822349377325 -19.1497836388300833 62.688768659973185 9.92682822349377325 -19.1497836388300833 62.688768659973185 976054970.136680961 myhost 976054970.136680961
FLASER 0 8.9474908046807009 -18.9994316100092284 62.630432094453333 8.9474908046807009 -18.9994316100092284 62.630432094453333 976054966.272647023 myhost 976054966.272647023
FLASER 0 8.63648794612995552 -18.9445271991909046 62.6701356692213807 8.63648794612995552 -18.9445271991909046 62.6701356692213807 976054964.304126024 myhost 976054964.304126024
FLASER 0 7.62978412302513309 -18.690133973336323 62.6200913565262383 7.62978412302513309 -18.690133973336323 62.6200913565262383 976054960.978096008 myhost 976054960.978096008
FLASER 0 6.7599731602446731 -18.4894730913882732 62.6907498852696889 6.7599731602446731 -18.4894730913882732 62.6907498852696889 976054958.722529054 myhost 976054958.722529054
FLASER 0 5.79383123217369356 -18.4088052022696473 62.7692315481915273 5.79383123217369356 -18.4088052022696473 62.7692315481915273 976054954.885220051 myhost 976054954.885220051
FLASER 0 4.70468140044728145 -18.4793128898651275 62.9335538102349332 4.70468140044728145 -18.4793128898651275 62.9335538102349332 976054950.857427955 myhost 976054950.857427955
FLASER 0 3.99822996602626368 -18.3878646565449699 62.6014651539900555 3.99822996602626368 -18.3878646565449699 62.6014651539900555 976054948.22379601 myhost 976054948.22379601
FLASER 0 3.88959203469563963 -18.5107246340857898 62.6314188458288612 3.88959203469563963 -18.5107246340857898 62.6314188458288612 976054947.167870998 myhost 976054947.167870998
FLASER 0 2.65848934638400891 -18.2814948956210905 62.9426417833775247 2.65848934638400891 -18.2814948956210905 62.9426417833775247 976054943.44757998 myhost 976054943.44757998
FLASER 0 2.07738933154481087 -18.3223913813215837 62.9939075857032265 2.07738933154481087 -18.3223913813215837 62.9939075857032265 976054940.717440963 myhost 976054940.717440963
FLASER 0 1.01939986508632563 -18.530412918807361 63.0695538373873248 1.01939986508632563 -18.530412918807361 63.0695538373873248 976054937.271082044 myhost 976054937.271082044
FLASER 0 0.725385561049699201 -18.6364744603115007 62.6301703471550653 0.725385561049699201 -18.6364744603115007 62.6301703471550653 976054933.844755054 myhost 976054933.844755054
FLASER 0 0.135247485618013391 -18.5728528178750452 62.7424564924791284 0.135247485618013391 -18.5728528178750452 62.7424564924791284 976054931.740856051 myhost 976054931.740856051
FLASER 0 -0.85778512293846243 -18.5454820007250163 62.7178303115089903 -0.85778512293846243 -18.5454820007250163 62.7178303115089903 976054928.296638966 myhost 976054928.296638966
FLASER 0 -1.86502335329562485 -18.3860637128882516 62.7083563481481931 -1.86502335329562485 -18.3860637128882516 62.7083563481481931 976054925.946200013 myhost 976054925.946200013
FLASER 0 -2.04260766019347306 -18.3585365566523038 62.7393747365334562 -2.04260766019347306 -18.3585365566523038 62.7393747365334562 976054923.119822979 myhost 976054923.119822979
FLASER 0 -3.01447338649618235 -18.2460386670776522 62.8354366257283914 -3.01447338649618235 -18.2460386670776522 62.8354366257283914 976054919.633813024 myhost 976054919.633813024
FLASER 0 -3.9734171743077078 -18.2999972480918771 62.9895645263086905 -3.9734171743077078 -18.2999972480918771 62.9895645263086905 976054916.236240983 myhost 976054916.236240983
FLASER 0 -4.65889577944957889 -18.3417277091518542 62.9279687142809507 -4.65889577944957889 -18.3417277091518542 62.9279687142809507 976054914.186699986 myhost 976054914.186699986
FLASER 0 -4.64342292692941694 -18.367137369870111 62.4115965416700362 -4.64342292692941694 -18.367137369870111 62.4115965416700362 976054912.654194951 myhost 976054912.654194951
FLASER 0 -4.7047701640436248 -18.4231666573815893 61.8315688408954287 -4.7047701640436248 -18.4231666573815893 61.8315688408954287 976054911.273964047 myhost 976054911.273964047
FLASER 0 -4.75590768018044319 -18.1875535283448606 61.3164352325457216 -4.75590768018044319 -18.1875535283448606 61.3164352325457216 976054908.157253981 myhost 976054908.157253981
FLASER 0 -4.78502947596211392 -17.2252733345381266 61.3838296062186899 -4.78502947596211392 -17.2252733345381266 61.3838296062186899 976054904.772310972 myhost 976054904.772310972
FLASER 0 -4.93639016275794251 -16.2314390407907077 61.4698398113014477 -4.93639016275794251 -16.2314390407907077 61.4698398113014477 976054900.841032982 myhost 976054900.841032982
FLASER 0 -5.23795005891988907 -15.2959942413677386 61.571404704898562 -5.23795005891988907 -15.2959942413677386 61.571404704898562 976054898.522992015 myhost 976054898.522992015
FLASER 0 -5.52577717016340308 -14.3495069437967118 61.5747944959084137 -5.52577717016340308 -14.3495069437967118 61.5747944959084137 976054894.745792985 myhost 976054894.745792985
FLASER 0 -5.83605683702288047 -13.410225567390027 61.5904861355328634 -5.83605683702288047 -13.410225567390027 61.5904861355328634 976054891.428750038 myhost 976054891.428750038
FLASER 0 -5.87252673426704597 -13.3176474992754841 61.5476440233304629 -5.87252673426704597 -13.3176474992754841 61.5476440233304629 976054889.620823979 myhost 976054889.620823979
FLASER 0 -5.91415478792652216 -13.2974517241130155 61.0662519522576375 -5.91415478792652216 -13.2974517241130155 61.0662519522576375 976054887.725877047 myhost 976054887.725877047
FLASER 0 -5.74748652652160885 -12.3519413982447244 61.1436873965631804 -5.74748652652160885 -12.3519413982447244 61.1436873965631804 976054884.584965944 myhost 976054884.584965944
FLASER 0 -5.63070577426169461 -11.3500360932012239 61.1939511563165937 -5.63070577426169461 -11.3500360932012239 61.1939511563165937 976054881.393949032 myhost 976054881.393949032
FLASER 0 -5.57382354968103311 -10.4884670330191909 61.2131477495157696 -5.57382354968103311 -10.4884670330191909 61.2131477495157696 976054878.248950005 myhost 976054878.248950005
FLASER 0 -5.60588641018885525 -9.6679089948194683 61.2754853636326189 -5.60588641018885525 -9.6679089948194683 61.2754853636326189 976054873.458250999 myhost 976054873.458250999
FLASER 0 -5.79442069828801465 -8.62673734477516341 61.5190779357349129 -5.79442069828801465 -8.62673734477516341 61.5190779357349129 976054869.538156033 myhost 976054869.538156033
FLASER 0 -5.81468644345295971 -8.42443659309746806 61.0860048614114817 -5.81468644345295971 -8.42443659309746806 61.0860048614114817 976054867.813155055 myhost 976054867.813155055
FLASER 0 -5.72024789248273802 -7.67593544556560659 61.164024691907116 -5.72024789248273802 -7.67593544556560659 61.164024691907116 976054864.69551003 myhost 976054864.69551003
FLASER 0 -5.60936278174400105 -6.69948591631178125 61.1614424282469642 -5.60936278174400105 -6.69948591631178125 61.1614424282469642 976054861.471557021 myhost 976054861.471557021
FLASER 0 -5.44940733264546662 -5.84751765433413073 61.1323054676165611 -5.44940733264546662 -5.84751765433413073 61.1323054676165611 976054856.720473051 myhost 976054856.720473051
FLASER 0 -5.5613329305308552 -5.19542693428058833 61.4182416044181707 -5.5613329305308552 -5.19542693428058833 61.4182416044181707 976054852.732033968 myhost 976054852.732033968
FLASER 0 -5.7003881002567427 -4.42258163060835585 61.4307971444517875 -5.7003881002567427 -4.42258163060835585 61.4307971444517875 976054851.265519977 myhost 976054851.265519977
FLASER 0 -5.72018365020538067 -4.33957887764887218 61.4319727933570476 -5.72018365020538067 -4.33957887764887218 61.4319727933570476 976054849.601546049 myhost 976054849.601546049
FLASER 0 -5.85566085021189409 -3.35193365236516039 61.3360811565221056 -5.85566085021189409 -3.35193365236516039 61.3360811565221056 976054846.130668044 myhost 976054846.130668044
FLASER 0 -5.92523242851819987 -2.92560364779313042 61.0055582546407464 -5.92523242851819987 -2.92560364779313042 61.0055582546407464 976054843.974800944 myhost 976054843.974800944
FLASER 0 -5.70552273707827062 -2.58640692047787502 60.6426953981030863 -5.70552273707827062 -2.58640692047787502 60.6426953981030863 976054840.434272051 myhost 976054840.434272051
FLASER 0 -5.37519737913728068 -2.00403931941670521 60.6338668374536596 -5.37519737913728068 -2.00403931941670521 60.6338668374536596 976054837.685853958 myhost 976054837.685853958
FLASER 0 -4.85991321971681955 -1.15104803878513651 60.6944906376337059 -4.85991321971681955 -1.15104803878513651 60.6944906376337059 976054834.162400007 myhost 976054834.162400007
FLASER 0 -4.50629480651742398 -0.355012663096632153 60.7989545370822171 -4.50629480651742398 -0.355012663096632153 60.7989545370822171 976054830.380720019 myhost 976054830.380720019
FLASER 0 -4.10842931146801593 0.428369209400760287 60.734149459244037 -4.10842931146801593 0.428369209400760287 60.734149459244037 976054827.427181005 myhost 976054827.427181005
FLASER 0 -4.11693416459368944 0.503122330746005764 60.1314288096690177 -4.11693416459368944 0.503122330746005764 60.1314288096690177 976054825.774587035 myhost 976054825.774587035
FLASER 0 -3.50496554977772856 0.627035830320254117 59.7366801379433809 -3.50496554977772856 0.627035830320254117 59.7366801379433809 976054822.253613949 myhost 976054822.253613949
FLASER 0 -2.51807726423369349 0.459734812044165664 59.3147612921309602 -2.51807726423369349 0.459734812044165664 59.3147612921309602 976054818.412994027 myhost 976054818.412994027
FLASER 0 -1.72877294114935509 0.081654035525987656 59.3158519223867202 -1.72877294114935509 0.081654035525987656 59.3158519223867202 976054814.996695995 myhost 976054814.996695995
FLASER 0 -1.02484950396796082 -0.509283470667572069 58.8918816806141976 -1.02484950396796082 -0.509283470667572069 58.8918816806141976 976054810.954632044 myhost 976054810.954632044
FLASER 0 -0.916789592512004092 -0.495825275611021854 58.3905229130524788 -0.916789592512004092 -0.495825275611021854 58.3905229130524788 976054809.582697988 myhost 976054809.582697988
FLASER 0 -1.12636930208966701 -0.507312692319833558 57.8383613626293496 -1.12636930208966701 -0.507312692319833558 57.8383613626293496 976054808.431081057 myhost 976054808.431081057
FLASER 0 -0.954265259028627133 -0.542485102077299164 57.24149222146157 -0.954265259028627133 -0.542485102077299164 57.24149222146157 976054807.245179057 myhost 976054807.245179057
FLASER 0 -0.978495888083187548 -0.470222269050039721 56.617651145380016 -0.978495888083187548 -0.470222269050039721 56.617651145380016 976054805.851264 myhost 976054805.851264
FLASER 0 -1.00222915359175047 -0.504307971016040413 56.0967691178653354 -1.00222915359175047 -0.504307971016040413 56.0967691178653354 976054804.671064019 myhost 976054804.671064019
FLASER 0 -1.04417365951318719 -0.578989674604268978 55.5745159566453708 -1.04417365951318719 -0.578989674604268978 55.5745159566453708 976054803.48151803 myhost 976054803.48151803
FLASER 0 -1.1053715067893175 -0.594024537686806964 55.0617462387499401 -1.1053715067893175 -0.594024537686806964 55.0617462387499401 976054803.218426943 myhost 976054803.218426943
FLASER 0 -0.952663652142626494 -0.0612273548443060533 54.7400536371446762 -0.952663652142626494 -0.0612273548443060533 54.7400536371446762 976054797.430328965 myhost 976054797.430328965
FLASER 0 -0.85996080056436075 0.862107053429577941 55.1295512534455483 -0.85996080056436075 0.862107053429577941 55.1295512534455483 976054794.100757003 myhost 976054794.100757003
FLASER 0 -0.930651292994492341 1.82559220838108671 54.9645994015388482 -0.930651292994492341 1.82559220838108671 54.9645994015388482 976054788.693269968 myhost 976054788.693269968
FLASER 0 -0.709848379726549128 2.26110304519505911 54.5669729643741874 -0.709848379726549128 2.26110304519505911 54.5669729643741874 976054785.624017954 myhost 976054785.624017954
FLASER 0 -0.371070664259472605 3.09019130087304195 54.6438928345607877 -0.371070664259472605 3.09019130087304195 54.6438928345607877 976054782.206048012 myhost 976054782.206048012
FLASER 0 -0.256972956770734284 3.14685312869900802 55.1485946847555937 -0.256972956770734284 3.14685312869900802 55.1485946847555937 976054779.61056006 myhost 976054779.61056006
FLASER 0 -0.231450523941753555 3.17579219610849561 55.6696415608861059 -0.231450523941753555 3.17579219610849561 55.6696415608861059 976054778.401016951 myhost 976054778.401016951
FLASER 0 -0.298584821661852517 3.2138233370011835 56.0853209335882141 -0.298584821661852517 3.2138233370011835 56.0853209335882141 976054775.608937979 myhost 976054775.608937979
FLASER 0 -0.322244737764756484 3.16305079481284102 56.4175088375590974 -0.322244737764756484 3.16305079481284102 56.4175088375590974 976054773.719692945 myhost 976054773.719692945
FLASER 0 -0.327321721704155577 3.16853896440889171 55.8971813934005368 -0.327321721704155577 3.16853896440889171 55.8971813934005368 976054772.462991953 myhost 976054772.462991953
FLASER 0 -0.327991390381096093 3.21126973199814003 55.2524024360515895 -0.327991390381096093 3.21126973199814003 55.2524024360515895 976054771.245118976 myhost 976054771.245118976
FLASER 0 -0.398990144541601921 3.19944011208089574 54.7384249310565849 -0.398990144541601921 3.19944011208089574 54.7384249310565849 976054770.799499989 myhost 976054770.799499989
FLASER 0 -0.413718056384164978 3.19961444925549765 54.2357523568420632 -0.413718056384164978 3.19961444925549765 54.2357523568420632 976054768.809118986 myhost 976054768.809118986
FLASER 0 -0.446729112793166572 3.23817461242714755 53.7199504490263564 -0.446729112793166572 3.23817461242714755 53.7199504490263564 976054767.650089025 myhost 976054767.650089025
FLASER 0 -0.453328068511250126 3.25220675520793856 53.1962653567452577 -0.453328068511250126 3.25220675520793856 53.1962653567452577 976054766.407819033 myhost 976054766.407819033
FLASER 0 -0.428799388981209062 3.29281687030933945 52.582357055008849 -0.428799388981209062 3.29281687030933945 52.582357055008849 976054765.207963943 myhost 976054765.207963943
FLASER 0 -0.408396849987908594 3.34036553751032139 52.0555553768252892 -0.408396849987908594 3.34036553751032139 52.0555553768252892 976054764.324916959 myhost 976054764.324916959
FLASER 0 -0.440850962153560344 2.7580866444673231 51.6036769844554115 -0.440850962153560344 2.7580866444673231 51.6036769844554115 976054761.336140037 myhost 976054761.336140037
FLASER 0 -0.644395209206357844 2.05707627729938469 51.5738173472007304 -0.644395209206357844 2.05707627729938469 51.5738173472007304 976054757.583170056 myhost 976054757.583170056
FLASER 0 -0.942230934391436348 1.10501786222798493 51.6010284759689526 -0.942230934391436348 1.10501786222798493 51.6010284759689526 976054754.286677957 myhost 976054754.286677957
FLASER 0 -0.839123966627787765 0.249886742024513053 51.5983348089461487 -0.839123966627787765 0.249886742024513053 51.5983348089461487 976054750.709782958 myhost 976054750.709782958
FLASER 0 -0.948660192563305249 0.21960440954257851 51.0561180408418096 -0.948660192563305249 0.21960440954257851 51.0561180408418096 976054748.924438953 myhost 976054748.924438953
FLASER 0 -0.860896642835873305 0.241092240459665902 50.5480608360000687 -0.860896642835873305 0.241092240459665902 50.5480608360000687 976054747.426018953 myhost 976054747.426018953
FLASER 0 -0.974847898039775784 0.300949528154337009 50.1248709235899099 -0.974847898039775784 0.300949528154337009 50.1248709235899099 976054745.554749966 myhost 976054745.554749966
FLASER 0 -2.06516031379230203 0.433371288528234255 50.1756125123479109 -2.06516031379230203 0.433371288528234255 50.1756125123479109 976054741.513214946 myhost 976054741.513214946
FLASER 0 -2.86670197605101773 0.525590645927328182 50.1779554570366528 -2.86670197605101773 0.525590645927328182 50.1779554570366528 976054738.624726057 myhost 976054738.624726057
FLASER 0 -3.7100965702359745 0.405821633753257915 50.3448342923400318 -3.7100965702359745 0.405821633753257915 50.3448342923400318 976054735.779696941 myhost 976054735.779696941
FLASER 0 -4.14432716260894018 0.531638697135792038 50.2087555650342026 -4.14432716260894018 0.531638697135792038 50.2087555650342026 976054733.49290204 myhost 976054733.49290204
FLASER 0 -5.26314496273520938 0.464795721067151557 50.2884643924774011 -5.26314496273520938 0.464795721067151557 50.2884643924774011 976054730.350921035 myhost 976054730.350921035
FLASER 0 -6.17628543834162969 0.364723968530385634 50.3813161361075359 -6.17628543834162969 0.364723968530385634 50.3813161361075359 976054727.772779942 myhost 976054727.772779942
FLASER 0 -6.50626176808851131 0.339621006102157674 50.2363959873557562 -6.50626176808851131 0.339621006102157674 50.2363959873557562 976054725.293645024 myhost 976054725.293645024
FLASER 0 -6.53196748936809612 0.334226032138221885 49.7144798199675293 -6.53196748936809612 0.334226032138221885 49.7144798199675293 976054723.764201045 myhost 976054723.764201045
FLASER 0 -6.55147031410760849 0.254074989992584488 49.1283972888596594 -6.55147031410760849 0.254074989992584488 49.1283972888596594 976054722.499624968 myhost 976054722.499624968
FLASER 0 -6.5484399912682818 0.52797695270612266 48.6539375951364619 -6.5484399912682818 0.52797695270612266 48.6539375951364619 976054720.219861031 myhost 976054720.219861031
FLASER 0 -6.56231566366406582 1.54656730201333192 48.7161216557786148 -6.56231566366406582 1.54656730201333192 48.7161216557786148 976054716.412511945 myhost 976054716.412511945
FLASER 0 -6.61722610884027684 2.01129385997726517 48.6975913774000162 -6.61722610884027684 2.01129385997726517 48.6975913774000162 976054714.678264022 myhost 976054714.678264022
FLASER 0 -6.64286018814749113 2.8886761728704875 48.7259242099116676 -6.64286018814749113 2.8886761728704875 48.7259242099116676 976054711.615972996 myhost 976054711.615972996
FLASER 0 -6.6247041419892696 3.68645082933233192 49.1085906197807347 -6.6247041419892696 3.68645082933233192 49.1085906197807347 976054706.838539958 myhost 976054706.838539958
FLASER 0 -6.60233874126607656 3.67020273176812184 49.6307090071062476 -6.60233874126607656 3.67020273176812184 49.6307090071062476 976054705.58256197 myhost 976054705.58256197
FLASER 0 -6.60640395908335876 3.74965612538306159 50.1249989141345154 -6.60640395908335876 3.74965612538306159 50.1249989141345154 976054703.249981046 myhost 976054703.249981046
FLASER 0 -6.60550297654624785 3.75396741415561319 50.228928271084861 -6.60550297654624785 3.75396741415561319 50.228928271084861 976054700.399083972 myhost 976054700.399083972
FLASER 0 -6.62366705855797733 3.72907905227754233 49.9059733435878172 -6.62366705855797733 3.72907905227754233 49.9059733435878172 976054699.705500007 myhost 976054699.705500007
FLASER 0 -6.65589330041351168 3.71979277911384987 49.3843420823796251 -6.65589330041351168 3.71979277911384987 49.3843420823796251 976054698.452173948 myhost 976054698.452173948
FLASER 0 -6.7256754326171615 3.71374561080516674 48.7957451507061251 -6.7256754326171615 3.71374561080516674 48.7957451507061251 976054697.367717981 myhost 976054697.367717981
FLASER 0 -6.75718989332960529 3.69945278057267091 48.2598810225112658 -6.75718989332960529 3.69945278057267091 48.2598810225112658 976054696.295132995 myhost 976054696.295132995
FLASER 0 -6.79792273161964555 3.77646004512910194 47.5616007206481228 -6.79792273161964555 3.77646004512910194 47.5616007206481228 976054695.748600006 myhost 976054695.748600006
FLASER 0 -6.79326440724718328 3.71149752877996209 47.6447749380767007 -6.79326440724718328 3.71149752877996209 47.6447749380767007 976054695.119143963 myhost 976054695.119143963
FLASER 0 -6.81683845924299803 3.74167632912883086 47.0426621061006145 -6.81683845924299803 3.74167632912883086 47.0426621061006145 976054693.352246046 myhost 976054693.352246046
FLASER 0 -6.8176218820516814 3.7872350678768032 46.5268460009614273 -6.8176218820516814 3.7872350678768032 46.5268460009614273 976054692.252109051 myhost 976054692.252109051
FLASER 0 -6.77704943443158569 3.82573112951692673 46.0204253704839914 -6.77704943443158569 3.82573112951692673 46.0204253704839914 976054691.621176004 myhost 976054691.621176004
FLASER 0 -6.74149981679255816 3.70298298742604715 45.5610273754824391 -6.74149981679255816 3.70298298742604715 45.5610273754824391 976054688.421062946 myhost 976054688.421062946
FLASER 0 -6.65864568135406554 2.73082860270134642 45.5990575082732192 -6.65864568135406554 2.73082860270134642 45.5990575082732192 976054684.928572059 myhost 976054684.928572059
FLASER 0 -6.67871888810555703 1.72433808160257152 45.5999161880302211 -6.67871888810555703 1.72433808160257152 45.5999161880302211 976054681.237717032 myhost 976054681.237717032
FLASER 0 -6.62394999403592522 1.13953907116781572 45.6400035828499497 -6.62394999403592522 1.13953907116781572 45.6400035828499497 976054678.908885002 myhost 976054678.908885002
FLASER 0 -6.61965922878826074 0.210595000289962614 45.5718644726050357 -6.61965922878826074 0.210595000289962614 45.5718644726050357 976054675.470793962 myhost 976054675.470793962
FLASER 0 -6.5733669940938686 -0.735257787191092138 45.4008073950091173 -6.5733669940938686 -0.735257787191092138 45.4008073950091173 976054671.891453028 myhost 976054671.891453028
FLASER 0 -6.55342400307654227 -1.82043062640244413 45.4492772574690989 -6.55342400307654227 -1.82043062640244413 45.4492772574690989 976054667.773195028 myhost 976054667.773195028
FLASER 0 -6.50099819712000393 -1.82898718787682646 44.9338791090557592 -6.50099819712000393 -1.82898718787682646 44.9338791090557592 976054667.295349002 myhost 976054667.295349002
FLASER 0 -6.50868266892562808 -1.76395284078686965 44.3594456392181229 -6.50868266892562808 -1.76395284078686965 44.3594456392181229 976054666.105666995 myhost 976054666.105666995
FLASER 0 -7.34886652909846116 -1.61233481567720727 43.8969196774231918 -7.34886652909846116 -1.61233481567720727 43.8969196774231918 976054660.611902952 myhost 976054660.611902952
FLASER 0 -8.40567390726667796 -1.46378117602377511 44.2718171655461887 -8.40567390726667796 -1.46378117602377511 44.2718171655461887 976054655.81843102 myhost 976054655.81843102
