FLASER 0 -0.410347 -0.0359331 81.6652 -0.410347 -0.0359331 81.6652 976055541.979699969 myhost 976055541.979699969
FLASER 0 -0.326306439564083839 -0.0412097053266529331 81.6592522901962496 -0.326306439564083839 -0.0412097053266529331 81.6592522901962496 976055541.100237966 myhost 976055541.100237966
FLASER 0 -0.979260376076764083 -0.00822015001287965986 81.8927920545829409 -0.979260376076764083 -0.00822015001287965986 81.8927920545829409 976055536.721703053 myhost 976055536.721703053
FLASER 0 -1.04830258377142305 0.0294263742454463906 82.3785687685561498 -1.04830258377142305 0.0294263742454463906 82.3785687685561498 976055533.945698023 myhost 976055533.945698023
FLASER 0 -1.1782735413917107 0.046184420314625857 82.9122529612886865 -1.1782735413917107 0.046184420314625857 82.9122529612886865 976055532.637850046 myhost 976055532.637850046
FLASER 0 -1.08045754914682313 0.0486041582701026709 83.3785326269772753 -1.08045754914682313 0.0486041582701026709 83.3785326269772753 976055532.540510058 myhost 976055532.540510058
FLASER 0 -1.13496852241789559 0.0381319652616382704 82.7808021516751609 -1.13496852241789559 0.0381319652616382704 82.7808021516751609 976055532.527529001 myhost 976055532.527529001
FLASER 0 -1.07986617193388179 -0.190104678071173872 83.383407355901511 -1.07986617193388179 -0.190104678071173872 83.383407355901511 976055528.370638967 myhost 976055528.370638967
FLASER 0 -0.999824427132398386 -1.19821568396019051 83.3016897869627826 -0.999824427132398386 -1.19821568396019051 83.3016897869627826 976055524.895115972 myhost 976055524.895115972
FLASER 0 -1.01804638451021279 -1.7384276553620257 83.3500982698136283 -1.01804638451021279 -1.7384276553620257 83.3500982698136283 976055522.761944056 myhost 976055522.761944056
FLASER 0 -0.932513243252286239 -2.62387648168799803 83.2972902483452629 -0.932513243252286239 -2.62387648168799803 83.2972902483452629 976055519.400673985 myhost 976055519.400673985
FLASER 0 -1.05556208554657616 -3.58889851776677338 83.2345684905719452 -1.05556208554657616 -3.58889851776677338 83.2345684905719452 976055518.25672996 myhost 976055518.25672996
FLASER 0 -1.03879003974385675 -4.55940925834830235 83.2709401256047528 -1.03879003974385675 -4.55940925834830235 83.2709401256047528 976055512.837046981 myhost 976055512.837046981
FLASER 0 -1.0650269334674034 -5.38134296392812672 83.1908806049793839 -1.0650269334674034 -5.38134296392812672 83.1908806049793839 976055509.580526948 myhost 976055509.580526948
FLASER 0 -1.14313158586163421 -6.26912431277366533 83.2647225293590765 -1.14313158586163421 -6.26912431277366533 83.2647225293590765 976055508.909240007 myhost 976055508.909240007
FLASER 0 -1.11522921024603172 -5.67807900771189988 83.1579130670863265 -1.11522921024603172 -5.67807900771189988 83.1579130670863265 976055508.550624967 myhost 976055508.550624967
FLASER 0 -1.1418395511499313 -6.69270908167506384 83.2249872258991985 -1.1418395511499313 -6.69270908167506384 83.2249872258991985 976055504.83040297 myhost 976055504.83040297
FLASER 0 -1.185304690067297 -7.70811372758228508 83.1700918469782806 -1.185304690067297 -7.70811372758228508 83.1700918469782806 976055503.414610028 myhost 976055503.414610028
FLASER 0 -1.26078912653710851 -8.64731413542000382 83.2302052034808639 -1.26078912653710851 -8.64731413542000382 83.2302052034808639 976055498.876471043 myhost 976055498.876471043
FLASER 0 -1.34553622688950036 -9.70558065569356465 83.1585053803333238 -1.34553622688950036 -9.70558065569356465 83.1585053803333238 976055494.397979975 myhost 976055494.397979975
FLASER 0 -1.34276640933876545 -10.4971733463547512 83.3699678133028925 -1.34276640933876545 -10.4971733463547512 83.3699678133028925 976055490.364580989 myhost 976055490.364580989
FLASER 0 -1.25160180456849579 -11.5090007616093146 83.3126074013803901 -1.25160180456849579 -11.5090007616093146 83.3126074013803901 976055486.789108992 myhost 976055486.789108992
FLASER 0 -1.24255274251734749 -12.5257422816378305 83.3829453163637027 -1.24255274251734749 -12.5257422816378305 83.3829453163637027 976055483.134155035 myhost 976055483.134155035
FLASER 0 -1.17446177109942917 -13.736388531503021 83.2025804388071606 -1.17446177109942917 -13.736388531503021 83.2025804388071606 976055479.47656095 myhost 976055479.47656095
FLASER 0 -1.22496962660481201 -14.4264356180866908 83.1987294523566874 -1.22496962660481201 -14.4264356180866908 83.1987294523566874 976055478.906800032 myhost 976055478.906800032
FLASER 0 -1.19379303261971215 -13.9594206618505581 83.2013560457463086 -1.19379303261971215 -13.9594206618505581 83.2013560457463086 976055478.67702198 myhost 976055478.67702198
FLASER 0 -1.25047848851601917 -14.9179035401571909 83.3455124946390242 -1.25047848851601917 -14.9179035401571909 83.3455124946390242 976055475.281986952 myhost 976055475.281986952
FLASER 0 -1.21158406690609266 -15.876884197572366 83.2803851265430808 -1.21158406690609266 -15.876884197572366 83.2803851265430808 976055473.919082999 myhost 976055473.919082999
FLASER 0 -1.14673102953856754 -16.8680275521598979 83.0787190617214577 -1.14673102953856754 -16.8680275521598979 83.0787190617214577 976055469.748039961 myhost 976055469.748039961
FLASER 0 -1.11375535250290891 -16.8809441887347127 82.5251293487666402 -1.11375535250290891 -16.8809441887347127 82.5251293487666402 976055466.453837991 myhost 976055466.453837991
FLASER 0 -1.08763055489191762 -16.9261500803093092 82.0226146465989387 -1.08763055489191762 -16.9261500803093092 82.0226146465989387 976055465.504089952 myhost 976055465.504089952
FLASER 0 -1.71127503332867215 -16.9512866119573964 81.5863227566399729 -1.71127503332867215 -16.9512866119573964 81.5863227566399729 976055461.446989059 myhost 976055461.446989059
FLASER 0 -2.767770719024782 -16.871723160618 81.6113692385569891 -2.767770719024782 -16.871723160618 81.6113692385569891 976055457.44817102 myhost 976055457.44817102
FLASER 0 -3.78730764995766922 -16.8349322298687873 81.5999463203870192 -3.78730764995766922 -16.8349322298687873 81.5999463203870192 976055453.926208019 myhost 976055453.926208019
FLASER 0 -4.8178884920378735 -16.7627867098994727 81.6018941279274799 -4.8178884920378735 -16.7627867098994727 81.6018941279274799 976055450.213881969 myhost 976055450.213881969
FLASER 0 -5.79437933655189052 -16.6662495308366161 81.3987992918455632 -5.79437933655189052 -16.6662495308366161 81.3987992918455632 976055446.14379096 myhost 976055446.14379096
FLASER 0 -5.84485981222634532 -16.6874750674322208 80.8860811398978257 -5.84485981222634532 -16.6874750674322208 80.8860811398978257 976055445.652809978 myhost 976055445.652809978
FLASER 0 -5.9030161252678246 -16.7068479006218951 80.3394924721865635 -5.9030161252678246 -16.7068479006218951 80.3394924721865635 976055445.645979047 myhost 976055445.645979047
FLASER 0 -5.864632479969762 -16.2154345890734852 79.9907947783568432 -5.864632479969762 -16.2154345890734852 79.9907947783568432 976055441.582537055 myhost 976055441.582537055
FLASER 0 -5.7459063615191317 -15.280737358344787 80.0217141911074776 -5.7459063615191317 -15.280737358344787 80.0217141911074776 976055437.667148948 myhost 976055437.667148948
FLASER 0 -5.67005313594553151 -14.3128066072745526 80.0667684629648022 -5.67005313594553151 -14.3128066072745526 80.0667684629648022 976055433.599251032 myhost 976055433.599251032
FLASER 0 -5.6293735224369259 -13.2973658009422842 80.1125778435812776 -5.6293735224369259 -13.2973658009422842 80.1125778435812776 976055429.681280971 myhost 976055429.681280971
FLASER 0 -5.69091455584014572 -12.2910126610260217 80.170852577270125 -5.69091455584014572 -12.2910126610260217 80.170852577270125 976055425.711969972 myhost 976055425.711969972
FLASER 0 -5.79892472260201153 -11.2735224118871447 80.2262289449853796 -5.79892472260201153 -11.2735224118871447 80.2262289449853796 976055422.191877961 myhost 976055422.191877961
FLASER 0 -5.92513895095164944 -10.3868078125754728 79.9096293696345441 -5.92513895095164944 -10.3868078125754728 79.9096293696345441 976055418.31693995 myhost 976055418.31693995
FLASER 0 -5.95815651343628794 -10.343787098373296 79.4965625259761595 -5.95815651343628794 -10.343787098373296 79.4965625259761595 976055417.471271992 myhost 976055417.471271992
FLASER 0 -5.99076222722889984 -10.378733535447914 78.9793351371677375 -5.99076222722889984 -10.378733535447914 78.9793351371677375 976055417.466006041 myhost 976055417.466006041
FLASER 0 -6.00606657357967322 -10.3656882973121505 78.4254036591929093 -6.00606657357967322 -10.3656882973121505 78.4254036591929093 976055414.912289023 myhost 976055414.912289023
FLASER 0 -5.97960968840206419 -10.3156258712567013 77.9663297758506104 -5.97960968840206419 -10.3156258712567013 77.9663297758506104 976055413.651309967 myhost 976055413.651309967
FLASER 0 -5.95336284389927961 -10.2993456103968786 77.4556463664783905 -5.95336284389927961 -10.2993456103968786 77.4556463664783905 976055413.193675041 myhost 976055413.193675041
FLASER 0 -5.88537313517632832 -10.7067060172740653 77.0878936561992276 -5.88537313517632832 -10.7067060172740653 77.0878936561992276 976055408.867391944 myhost 976055408.867391944
FLASER 0 -5.85015388909764944 -11.3815244647739604 77.0069251296157944 -5.85015388909764944 -11.3815244647739604 77.0069251296157944 976055405.769880056 myhost 976055405.769880056
FLASER 0 -5.8458714414906936 -12.4380592763101703 76.9582251211994048 -5.8458714414906936 -12.4380592763101703 76.9582251211994048 976055402.513499975 myhost 976055402.513499975
FLASER 0 -5.89530022115043817 -13.4101241240213955 77.0977242245582062 -5.89530022115043817 -13.4101241240213955 77.0977242245582062 976055400.819437027 myhost 976055400.819437027
FLASER 0 -5.78282718768538562 -14.2401055119684123 77.1795859418898118 -5.78282718768538562 -14.2401055119684123 77.1795859418898118 976055396.659829974 myhost 976055396.659829974
FLASER 0 -5.50880666346484471 -15.142315967724123 77.3474533262878055 -5.50880666346484471 -15.142315967724123 77.3474533262878055 976055392.265207052 myhost 976055392.265207052
FLASER 0 -5.26758235765973204 -16.0242316079830545 77.2458433797626185 -5.26758235765973204 -16.0242316079830545 77.2458433797626185 976055388.668030024 myhost 976055388.668030024
FLASER 0 -5.20195580985267014 -16.3175024564254656 77.2635333777440536 -5.20195580985267014 -16.3175024564254656 77.2635333777440536 976055388.12946105 myhost 976055388.12946105
FLASER 0 -4.98313108327907095 -16.9046681040819315 76.8671545935600449 -4.98313108327907095 -16.9046681040819315 76.8671545935600449 976055384.399888992 myhost 976055384.399888992
FLASER 0 -4.90784708108593382 -16.9332792469229076 76.2424235390963645 -4.90784708108593382 -16.9332792469229076 76.2424235390963645 976055383.861714005 myhost 976055383.861714005
FLASER 0 -4.92065413054057021 -16.9596449136798491 75.7118742997500505 -4.92065413054057021 -16.9596449136798491 75.7118742997500505 976055383.855666995 myhost 976055383.855666995
FLASER 0 -4.9083189975604844 -17.0579358716691551 75.1483617808515447 -4.9083189975604844 -17.0579358716691551 75.1483617808515447 976055380.707190037 myhost 976055380.707190037
FLASER 0 -4.92823864042029225 -17.083413556010516 74.6368967455135532 -4.92823864042029225 -17.083413556010516 74.6368967455135532 976055379.426062942 myhost 976055379.426062942
FLASER 0 -4.98991409318324664 -17.0961666634266436 74.0823295548535157 -4.98991409318324664 -17.0961666634266436 74.0823295548535157 976055379.410964012 myhost 976055379.410964012
FLASER 0 -5.02913823806232774 -17.1161647040597771 73.5271935118673383 -5.02913823806232774 -17.1161647040597771 73.5271935118673383 976055376.892222047 myhost 976055376.892222047
FLASER 0 -5.04976217601216781 -17.1050034415111902 73.2733587515026699 -5.04976217601216781 -17.1050034415111902 73.2733587515026699 976055376.348868966 myhost 976055376.348868966
FLASER 0 -5.10892886493430343 -17.0682128608739418 72.7822428424088059 -5.10892886493430343 -17.0682128608739418 72.7822428424088059 976055375.159628987 myhost 976055375.159628987
FLASER 0 -4.5815727774209094 -16.9977579587041205 72.3217823418940355 -4.5815727774209094 -16.9977579587041205 72.3217823418940355 976055371.695567012 myhost 976055371.695567012
FLASER 0 -3.60708229333531261 -16.9647431960084667 72.2303119343600031 -3.60708229333531261 -16.9647431960084667 72.2303119343600031 976055368.126947999 myhost 976055368.126947999
FLASER 0 -3.42300187515523202 -16.9794129380075098 72.2354210221525364 -3.42300187515523202 -16.9794129380075098 72.2354210221525364 976055367.270462036 myhost 976055367.270462036
FLASER 0 -2.37614739392837748 -16.9887708038830887 72.280746011393461 -2.37614739392837748 -16.9887708038830887 72.280746011393461 976055363.762545943 myhost 976055363.762545943
FLASER 0 -1.56797386443049236 -16.9748699850157863 72.2207701620689164 -1.56797386443049236 -16.9748699850157863 72.2207701620689164 976055360.533668041 myhost 976055360.533668041
FLASER 0 -1.20999441126397023 -17.0552000894009232 72.7039599014991751 -1.20999441126397023 -17.0552000894009232 72.7039599014991751 976055358.584476948 myhost 976055358.584476948
FLASER 0 -1.1442181357330834 -17.0971271459937988 73.2213713814805232 -1.1442181357330834 -17.0971271459937988 73.2213713814805232 976055355.750226021 myhost 976055355.750226021
FLASER 0 -1.03902650051355172 -16.5840878491159742 73.6674054115881916 -1.03902650051355172 -16.5840878491159742 73.6674054115881916 976055351.671645999 myhost 976055351.671645999
FLASER 0 -0.906102581886115366 -15.6716365152261421 73.9695395647103169 -0.906102581886115366 -15.6716365152261421 73.9695395647103169 976055347.506800056 myhost 976055347.506800056
FLASER 0 -0.898513851974670374 -15.6666105921731109 74.178211414795868 -0.898513851974670374 -15.6666105921731109 74.178211414795868 976055346.569004059 myhost 976055346.569004059
FLASER 0 -0.84701087920683571 -15.6548341342569053 74.6752522715459008 -0.84701087920683571 -15.6548341342569053 74.6752522715459008 976055344.199849963 myhost 976055344.199849963
FLASER 0 -1.769490354767145 -15.3175886703438486 75.108530851780813 -1.769490354767145 -15.3175886703438486 75.108530851780813 976055338.630270004 myhost 976055338.630270004
FLASER 0 -2.72002179028120672 -15.0965953593640965 75.3485955178239237 -2.72002179028120672 -15.0965953593640965 75.3485955178239237 976055335.421110988 myhost 976055335.421110988
FLASER 0 -3.59120511770415529 -15.1679976079107348 75.3497642598093051 -3.59120511770415529 -15.1679976079107348 75.3497642598093051 976055331.816817999 myhost 976055331.816817999
FLASER 0 -3.61812845143312645 -15.23343858470081 74.801708585491042 -3.61812845143312645 -15.23343858470081 74.801708585491042 976055330.353157997 myhost 976055330.353157997
FLASER 0 -3.64283370091970005 -15.2332184594022131 74.2405333739024087 -3.64283370091970005 -15.2332184594022131 74.2405333739024087 976055329.996062994 myhost 976055329.996062994
FLASER 0 -3.70712955604846428 -15.2501706756522015 73.7245325308769281 -3.70712955604846428 -15.2501706756522015 73.7245325308769281 976055329.975643039 myhost 976055329.975643039
FLASER 0 -3.73567885133124955 -15.242792499609827 73.1355118968042461 -3.73567885133124955 -15.242792499609827 73.1355118968042461 976055326.810173988 myhost 976055326.810173988
FLASER 0 -3.76360216682264337 -15.207317102993521 72.6115666788687122 -3.76360216682264337 -15.207317102993521 72.6115666788687122 976055325.731735945 myhost 976055325.731735945
FLASER 0 -3.0482165075340979 -15.1853361990087024 72.1995585023123994 -3.0482165075340979 -15.1853361990087024 72.1995585023123994 976055321.97813499 myhost 976055321.97813499
FLASER 0 -1.96438988461289443 -15.2431588653692298 72.0979411095899536 -1.96438988461289443 -15.2431588653692298 72.0979411095899536 976055317.827083945 myhost 976055317.827083945
FLASER 0 -1.92612176602064955 -15.2777212783470606 72.5875468190917843 -1.92612176602064955 -15.2777212783470606 72.5875468190917843 976055315.59227705 myhost 976055315.59227705
FLASER 0 -1.19463350219951869 -14.9634448700983214 72.9794675998088564 -1.19463350219951869 -14.9634448700983214 72.9794675998088564 976055309.679553032 myhost 976055309.679553032
FLASER 0 -1.18129920043770698 -14.9667806463255157 73.531052511602752 -1.18129920043770698 -14.9667806463255157 73.531052511602752 976055307.240937948 myhost 976055307.240937948
FLASER 0 -1.161540716460983 -14.6972257994328572 73.9757961247417768 -1.161540716460983 -14.6972257994328572 73.9757961247417768 976055303.320996046 myhost 976055303.320996046
FLASER 0 -1.22464956283117399 -13.6616696304727672 73.9257328997772163 -1.22464956283117399 -13.6616696304727672 73.9257328997772163 976055299.490813017 myhost 976055299.490813017
FLASER 0 -1.23945794545347665 -13.0658516788448384 73.889728550457761 -1.23945794545347665 -13.0658516788448384 73.889728550457761 976055297.796028018 myhost 976055297.796028018
FLASER 0 -1.39683739098210991 -12.0708865912083496 73.7691609385676799 -1.39683739098210991 -12.0708865912083496 73.7691609385676799 976055293.946954012 myhost 976055293.946954012
FLASER 0 -1.2430592055135139 -11.0800501262537683 73.8062647429379837 -1.2430592055135139 -11.0800501262537683 73.8062647429379837 976055290.159932971 myhost 976055290.159932971
FLASER 0 -1.243492381956389 -9.98876828070482148 73.9407059011033994 -1.243492381956389 -9.98876828070482148 73.9407059011033994 976055286.62985599 myhost 976055286.62985599
FLASER 0 -1.27763562246156304 -9.1074008786001901 73.6719883467791448 -1.27763562246156304 -9.1074008786001901 73.6719883467791448 976055280.498893023 myhost 976055280.498893023
FLASER 0 -1.16170644324869254 -8.14338387766659721 73.7447445277187086 -1.16170644324869254 -8.14338387766659721 73.7447445277187086 976055278.759865046 myhost 976055278.759865046
FLASER 0 -1.08037533966129295 -7.29384233072623012 74.1382175673023767 -1.08037533966129295 -7.29384233072623012 74.1382175673023767 976055272.878000021 myhost 976055272.878000021
FLASER 0 -1.18482595324960482 -7.06784476386761185 73.9329997270215671 -1.18482595324960482 -7.06784476386761185 73.9329997270215671 976055270.47024703 myhost 976055270.47024703
FLASER 0 -1.14700048083807071 -6.83256216869148592 73.6346500729990083 -1.14700048083807071 -6.83256216869148592 73.6346500729990083 976055266.705675006 myhost 976055266.705675006
FLASER 0 -1.02812391405025028 -5.97756526302457925 73.7416863776569755 -1.02812391405025028 -5.97756526302457925 73.7416863776569755 976055262.730543017 myhost 976055262.730543017
FLASER 0 -0.978591401125638916 -5.64668771161513128 74.043037969811266 -0.978591401125638916 -5.64668771161513128 74.043037969811266 976055260.37985599 myhost 976055260.37985599
FLASER 0 -0.935639275079797161 -5.54785929533881106 74.6668483143163826 -0.935639275079797161 -5.54785929533881106 74.6668483143163826 976055258.402083039 myhost 976055258.402083039
FLASER 0 -0.933976966903008243 -5.56375099157606456 75.1794935436537912 -0.933976966903008243 -5.56375099157606456 75.1794935436537912 976055256.213294983 myhost 976055256.213294983
FLASER 0 -1.70811065575399357 -5.58163657615934472 75.5809776850824733 -1.70811065575399357 -5.58163657615934472 75.5809776850824733 976055251.503144026 myhost 976055251.503144026
FLASER 0 -2.62675576923128418 -5.62454689867024271 75.9935156578332283 -2.62675576923128418 -5.62454689867024271 75.9935156578332283 976055246.770267963 myhost 976055246.770267963
FLASER 0 -2.6890062624428972 -5.59948339609611079 76.4777890316068749 -2.6890062624428972 -5.59948339609611079 76.4777890316068749 976055243.659685969 myhost 976055243.659685969
FLASER 0 -3.09175006958285659 -6.34704825163633313 76.4897212802762141 -3.09175006958285659 -6.34704825163633313 76.4897212802762141 976055241.777799964 myhost 976055241.777799964
FLASER 0 -3.51799103104673661 -7.22792762339699824 76.1467976092125269 -3.51799103104673661 -7.22792762339699824 76.1467976092125269 976055237.731385946 myhost 976055237.731385946
FLASER 0 -3.50738340843330088 -7.27180607041188853 75.5964549236223462 -3.50738340843330088 -7.27180607041188853 75.5964549236223462 976055235.523561954 myhost 976055235.523561954
FLASER 0 -3.50570660948063129 -7.31416841568295517 75.0696704690186891 -3.50570660948063129 -7.31416841568295517 75.0696704690186891 976055234.230065942 myhost 976055234.230065942
FLASER 0 -3.53802898387155684 -7.36678932586934287 74.5354985299237995 -3.53802898387155684 -7.36678932586934287 74.5354985299237995 976055233.793382049 myhost 976055233.793382049
FLASER 0 -3.58809381213823908 -7.40855776525155818 73.9996253930904686 -3.58809381213823908 -7.40855776525155818 73.9996253930904686 976055231.693040967 myhost 976055231.693040967
FLASER 0 -3.63891920574250305 -7.40829301096512793 73.4727678104321029 -3.63891920574250305 -7.40829301096512793 73.4727678104321029 976055230.492491961 myhost 976055230.492491961
FLASER 0 -3.19043989655037885 -6.86807760463734152 73.213058271622117 -3.19043989655037885 -6.86807760463734152 73.213058271622117 976055225.895246029 myhost 976055225.895246029
FLASER 0 -3.09978067275686309 -6.63702924357288104 73.639778552071121 -3.09978067275686309 -6.63702924357288104 73.639778552071121 976055222.709066033 myhost 976055222.709066033
FLASER 0 -2.94379190691345949 -5.71803256640171487 73.2661410211784698 -2.94379190691345949 -5.71803256640171487 73.2661410211784698 976055218.394152999 myhost 976055218.394152999
FLASER 0 -3.01077737030808468 -5.68056056297318701 72.7829152805356898 -3.01077737030808468 -5.68056056297318701 72.7829152805356898 976055217.727133036 myhost 976055217.727133036
FLASER 0 -2.66898681265506266 -5.63728287005757789 72.3238964422803008 -2.66898681265506266 -5.63728287005757789 72.3238964422803008 976055214.308895946 myhost 976055214.308895946
FLASER 0 -1.86581544743949701 -5.54364497600944794 72.4106036672466047 -1.86581544743949701 -5.54364497600944794 72.4106036672466047 976055211.113669038 myhost 976055211.113669038
FLASER 0 -1.7794342606592588 -5.57226770688144057 72.9472845423924525 -1.7794342606592588 -5.57226770688144057 72.9472845423924525 976055209.592787027 myhost 976055209.592787027
FLASER 0 -1.02120906852075377 -5.1265477067695695 73.0810812102600096 -1.02120906852075377 -5.1265477067695695 73.0810812102600096 976055205.807834983 myhost 976055205.807834983
FLASER 0 -0.973430272320515488 -5.1495426174576 73.4992669289910907 -0.973430272320515488 -5.1495426174576 73.4992669289910907 976055202.558972001 myhost 976055202.558972001
FLASER 0 -0.974472278170846251 -5.14028460742928317 73.2211051428877084 -0.974472278170846251 -5.14028460742928317 73.2211051428877084 976055198.978778005 myhost 976055198.978778005
FLASER 0 -1.01490892669092059 -5.12790647806776789 72.8745321482886936 -1.01490892669092059 -5.12790647806776789 72.8745321482886936 976055198.109827042 myhost 976055198.109827042
FLASER 0 -1.03274361329568976 -5.07607001506029398 72.3247372732116105 -1.03274361329568976 -5.07607001506029398 72.3247372732116105 976055197.51601696 myhost 976055197.51601696
FLASER 0 -0.54645506453236814 -4.9716834790199087 72.3781774950141852 -0.54645506453236814 -4.9716834790199087 72.3781774950141852 976055193.748916984 myhost 976055193.748916984
FLASER 0 0.425183431755056795 -4.992484706026449 72.4120701777652016 0.425183431755056795 -4.992484706026449 72.4120701777652016 976055189.734315991 myhost 976055189.734315991
FLASER 0 0.431086061883968252 -5.04945327629582152 72.946740193661725 0.431086061883968252 -5.04945327629582152 72.946740193661725 976055189.297626972 myhost 976055189.297626972
FLASER 0 0.475483581247360565 -5.06755247821994903 73.2924853876038185 0.475483581247360565 -5.06755247821994903 73.2924853876038185 976055186.573078036 myhost 976055186.573078036
FLASER 0 0.521319579295177471 -4.81364411541933013 73.7507892365479165 0.521319579295177471 -4.81364411541933013 73.7507892365479165 976055183.541175961 myhost 976055183.541175961
FLASER 0 0.606368500922591092 -3.77100488141026302 73.7677449013640256 0.606368500922591092 -3.77100488141026302 73.7677449013640256 976055179.727525949 myhost 976055179.727525949
FLASER 0 0.575747196246181425 -3.51405656351928863 73.3535138193646787 0.575747196246181425 -3.51405656351928863 73.3535138193646787 976055177.782292008 myhost 976055177.782292008
FLASER 0 0.530787794662195278 -3.49324896965920173 72.8196803580072469 0.530787794662195278 -3.49324896965920173 72.8196803580072469 976055175.898149014 myhost 976055175.898149014
FLASER 0 0.489219452772310548 -3.44419964425014857 72.2706408175243951 0.489219452772310548 -3.44419964425014857 72.2706408175243951 976055174.802845955 myhost 976055174.802845955
FLASER 0 0.479793717526946439 -3.38954442321017835 71.8517717862982295 0.479793717526946439 -3.38954442321017835 71.8517717862982295 976055173.916376948 myhost 976055173.916376948
FLASER 0 0.498082240192910364 -3.35411948132742088 71.2640857230131672 0.498082240192910364 -3.35411948132742088 71.2640857230131672 976055173.910642982 myhost 976055173.910642982
FLASER 0 0.524803141551761332 -3.33288704803551328 70.772224972427054 0.524803141551761332 -3.33288704803551328 70.772224972427054 976055171.426316023 myhost 976055171.426316023
FLASER 0 0.605876057059786421 -3.34221917568736959 70.1992696419790576 0.605876057059786421 -3.34221917568736959 70.1992696419790576 976055170.165424943 myhost 976055170.165424943
FLASER 0 0.650080660451919368 -3.3638900844317754 69.5972393198276933 0.650080660451919368 -3.3638900844317754 69.5972393198276933 976055170.160078049 myhost 976055170.160078049
FLASER 0 0.551678330272327377 -3.40497699767681583 69.1328008228579733 0.551678330272327377 -3.40497699767681583 69.1328008228579733 976055166.74764502 myhost 976055166.74764502
FLASER 0 -0.472284513882632206 -3.46202577954676283 69.1209220612432205 -0.472284513882632206 -3.46202577954676283 69.1209220612432205 976055162.866490006 myhost 976055162.866490006
FLASER 0 -1.49855204968104849 -3.55459044819892478 69.1516513086612576 -1.49855204968104849 -3.55459044819892478 69.1516513086612576 976055159.353180051 myhost 976055159.353180051
FLASER 0 -2.57352217985885545 -3.46800886919807505 69.1282156111030872 -2.57352217985885545 -3.46800886919807505 69.1282156111030872 976055155.968999028 myhost 976055155.968999028
FLASER 0 -2.61117892882052738 -3.47000237913082676 69.6222687022252842 -2.61117892882052738 -3.47000237913082676 69.6222687022252842 976055154.460942984 myhost 976055154.460942984
FLASER 0 -2.63273553937973137 -3.39816761115598043 70.163460134510558 -2.63273553937973137 -3.39816761115598043 70.163460134510558 976055151.909319997 myhost 976055151.909319997
FLASER 0 -2.66643594310143239 -3.35991495011648356 70.5716101880402391 -2.66643594310143239 -3.35991495011648356 70.5716101880402391 976055150.650611997 myhost 976055150.650611997
FLASER 0 -2.61589097235830703 -3.37334361074833744 70.4291727691710037 -2.61589097235830703 -3.37334361074833744 70.4291727691710037 976055147.667597055 myhost 976055147.667597055
FLASER 0 -2.59108612086845014 -3.36896957894407256 69.872741415192138 -2.59108612086845014 -3.36896957894407256 69.872741415192138 976055146.829776049 myhost 976055146.829776049
FLASER 0 -2.56587035470824931 -3.41030535313777916 69.3204974394760995 -2.56587035470824931 -3.41030535313777916 69.3204974394760995 976055146.80401504 myhost 976055146.80401504
FLASER 0 -2.58118036422455033 -3.46121231254646711 68.7773730964972714 -2.58118036422455033 -3.46121231254646711 68.7773730964972714 976055144.137766957 myhost 976055144.137766957
FLASER 0 -2.62296159059360257 -3.51294833786314298 68.1641145424545556 -2.62296159059360257 -3.51294833786314298 68.1641145424545556 976055142.835723042 myhost 976055142.835723042
FLASER 0 -2.65414225197896814 -3.53420424895500407 67.6160743550283598 -2.65414225197896814 -3.53420424895500407 67.6160743550283598 976055142.830129027 myhost 976055142.830129027
FLASER 0 -2.69679568281770576 -3.56304550395202213 66.9923069267986762 -2.69679568281770576 -3.56304550395202213 66.9923069267986762 976055140.357509017 myhost 976055140.357509017
FLASER 0 -2.69589969196493318 -3.52344577049623009 66.7907719206226886 -2.69589969196493318 -3.52344577049623009 66.7907719206226886 976055139.865947008 myhost 976055139.865947008
FLASER 0 -2.72741134398958884 -3.46519502842581817 65.9189729531039603 -2.72741134398958884 -3.46519502842581817 65.9189729531039603 976055139.766499996 myhost 976055139.766499996
FLASER 0 -2.70986154575548621 -3.50747135250282582 66.3876161749839895 -2.70986154575548621 -3.50747135250282582 66.3876161749839895 976055139.143399954 myhost 976055139.143399954
FLASER 0 -2.62205194623257443 -3.48577399042893132 65.8945115959723893 -2.62205194623257443 -3.48577399042893132 65.8945115959723893 976055136.643805027 myhost 976055136.643805027
FLASER 0 -1.64036031118118952 -3.4901835554977696 65.9740810567887763 -1.64036031118118952 -3.4901835554977696 65.9740810567887763 976055133.395292044 myhost 976055133.395292044
FLASER 0 -1.10554996608106038 -3.57214969934860083 66.0396853135094233 -1.10554996608106038 -3.57214969934860083 66.0396853135094233 976055131.328732967 myhost 976055131.328732967
FLASER 0 -1.11146859492794925 -3.66451655563688616 66.5638635741266 -1.11146859492794925 -3.66451655563688616 66.5638635741266 976055128.364465952 myhost 976055128.364465952
FLASER 0 -1.06368716514430117 -3.66006540724456686 67.0577308587681813 -1.06368716514430117 -3.66006540724456686 67.0577308587681813 976055127.468508005 myhost 976055127.468508005
FLASER 0 -0.857469378411307104 -2.98369629302247885 67.4329649020944402 -0.857469378411307104 -2.98369629302247885 67.4329649020944402 976055122.150220037 myhost 976055122.150220037
FLASER 0 -0.997223111003434526 -2.28409634346331236 67.5816601917955069 -0.997223111003434526 -2.28409634346331236 67.5816601917955069 976055120.190618992 myhost 976055120.190618992
FLASER 0 -0.976923955725328419 -1.30773760126899385 67.5573619924900299 -0.976923955725328419 -1.30773760126899385 67.5573619924900299 976055116.651833057 myhost 976055116.651833057
FLASER 0 -0.942615818207293676 -0.402695154499792984 67.5814833332628666 -0.942615818207293676 -0.402695154499792984 67.5814833332628666 976055112.923218012 myhost 976055112.923218012
FLASER 0 -1.02388421697621101 -0.303092810353680575 67.0360991589468966 -1.02388421697621101 -0.303092810353680575 67.0360991589468966 976055110.740797043 myhost 976055110.740797043
FLASER 0 -1.0691227737123159 -0.266366291546325462 66.4836063811095954 -1.0691227737123159 -0.266366291546325462 66.4836063811095954 976055109.350540042 myhost 976055109.350540042
FLASER 0 -0.506167934269886377 -0.110759059122352649 66.167755210066133 -0.506167934269886377 -0.110759059122352649 66.167755210066133 976055105.140115976 myhost 976055105.140115976
FLASER 0 0.494089215065366572 0.0187946563744579576 66.0491346027862818 0.494089215065366572 0.0187946563744579576 66.0491346027862818 976055097.34010005 myhost 976055097.34010005
FLASER 0 1.35377018940846261 0.0251807341081941617 66.0507156956268204 1.35377018940846261 0.0251807341081941617 66.0507156956268204 976055094.853000045 myhost 976055094.853000045
FLASER 0 2.05393396357342084 0.0800509447591986473 66.0345007384728291 2.05393396357342084 0.0800509447591986473 66.0345007384728291 976055092.617745042 myhost 976055092.617745042
FLASER 0 3.07093029667422579 0.116329873992689889 66.1016783022827639 3.07093029667422579 0.116329873992689889 66.1016783022827639 976055088.979411006 myhost 976055088.979411006
FLASER 0 3.73409819209784555 0.169215050093970254 66.0379408014473768 3.73409819209784555 0.169215050093970254 66.0379408014473768 976055085.644927025 myhost 976055085.644927025
FLASER 0 4.65140939996965841 0.234371276785305116 65.9775875265809759 4.65140939996965841 0.234371276785305116 65.9775875265809759 976055082.309628963 myhost 976055082.309628963
FLASER 0 5.53618797870655754 0.28222949798791741 66.1014169897585617 5.53618797870655754 0.28222949798791741 66.1014169897585617 976055078.620252967 myhost 976055078.620252967
FLASER 0 6.4612876184076482 0.34618677154725136 66.0162704474363267 6.4612876184076482 0.34618677154725136 66.0162704474363267 976055075.474328995 myhost 976055075.474328995
FLASER 0 7.00581777897242386 0.333618798377228853 66.0245187213863716 7.00581777897242386 0.333618798377228853 66.0245187213863716 976055074.97468996 myhost 976055074.97468996
FLASER 0 6.73626580052912072 0.322246224781184087 66.0840390783659331 6.73626580052912072 0.322246224781184087 66.0840390783659331 976055074.102228999 myhost 976055074.102228999
FLASER 0 7.68586138060259749 0.331706297999890432 65.8422912061446368 7.68586138060259749 0.331706297999890432 65.8422912061446368 976055070.368702054 myhost 976055070.368702054
FLASER 0 8.24908189299508088 -0.0166575785583440474 65.3061315358393841 8.24908189299508088 -0.0166575785583440474 65.3061315358393841 976055066.465705037 myhost 976055066.465705037
FLASER 0 8.6258069272411344 -0.340067246974103066 65.2484237707606951 8.6258069272411344 -0.340067246974103066 65.2484237707606951 976055063.547973037 myhost 976055063.547973037
FLASER 0 9.27950057560844499 -1.00905423165748265 65.1290225581385016 9.27950057560844499 -1.00905423165748265 65.1290225581385016 976055060.145365 myhost 976055060.145365
FLASER 0 9.8820307913362857 -1.76209281995921208 65.2549779296179224 9.8820307913362857 -1.76209281995921208 65.2549779296179224 976055056.656787038 myhost 976055056.656787038
FLASER 0 10.635765041706625 -2.51726454134855659 65.4052524629994849 10.635765041706625 -2.51726454134855659 65.4052524629994849 976055052.935650945 myhost 976055052.935650945
FLASER 0 11.4475215592470629 -2.95342108721329888 65.0401677044781223 11.4475215592470629 -2.95342108721329888 65.0401677044781223 976055048.853126049 myhost 976055048.853126049
FLASER 0 11.6611158888314996 -3.85007158936815719 64.6252918844769937 11.6611158888314996 -3.85007158936815719 64.6252918844769937 976055043.689978004 myhost 976055043.689978004
FLASER 0 11.8179325926753407 -4.45824042846688329 64.6430102617659372 11.8179325926753407 -4.45824042846688329 64.6430102617659372 976055042.32001996 myhost 976055042.32001996
FLASER 0 11.9565550739217485 -5.47556449680865853 64.5829112475921079 11.9565550739217485 -5.47556449680865853 64.5829112475921079 976055037.930626035 myhost 976055037.930626035
FLASER 0 12.1445941327068443 -6.51059315555535978 64.5651636667125786 12.1445941327068443 -6.51059315555535978 64.5651636667125786 976055033.765939951 myhost 976055033.765939951
FLASER 0 12.2783133899995214 -7.47181212213879853 64.5592305424760013 12.2783133899995214 -7.47181212213879853 64.5592305424760013 976055030.156402946 myhost 976055030.156402946
FLASER 0 12.4071089654576703 -8.47187217266622383 64.5756912188217882 12.4071089654576703 -8.47187217266622383 64.5756912188217882 976055026.677852035 myhost 976055026.677852035
FLASER 0 12.5333806084949284 -9.43492929442616379 64.5564022060801648 12.5333806084949284 -9.43492929442616379 64.5564022060801648 976055023.28066802 myhost 976055023.28066802
FLASER 0 12.6255470350224783 -10.1946191939142796 64.5694481826765241 12.6255470350224783 -10.1946191939142796 64.5694481826765241 976055021.545390964 myhost 976055021.545390964
FLASER 0 12.7001358798362514 -10.778858266484086 64.5169206512324962 12.7001358798362514 -10.778858266484086 64.5169206512324962 976055018.224974036 myhost 976055018.224974036
FLASER 0 12.7592476599969924 -11.7165432345749529 64.454673092373838 12.7592476599969924 -11.7165432345749529 64.454673092373838 976055014.869541049 myhost 976055014.869541049
FLASER 0 12.7711157706110345 -12.7541392868533165 64.4097736250050303 12.7711157706110345 -12.7541392868533165 64.4097736250050303 976055011.925019979 myhost 976055011.925019979
FLASER 0 12.7756250898443557 -13.3806591772496741 64.4044505815768957 12.7756250898443557 -13.3806591772496741 64.4044505815768957 976055010.750030041 myhost 976055010.750030041
FLASER 0 12.7742272480371195 -13.4912989101836054 64.4082167499218912 12.7742272480371195 -13.4912989101836054 64.4082167499218912 976055008.571238041 myhost 976055008.571238041
FLASER 0 12.7255406584829132 -14.5136474915547371 64.3738934687527689 12.7255406584829132 -14.5136474915547371 64.3738934687527689 976055005.912690043 myhost 976055005.912690043
FLASER 0 12.6749961526667665 -15.3716511487257588 64.3366410948366649 12.6749961526667665 -15.3716511487257588 64.3366410948366649 976055001.885213017 myhost 976055001.885213017
FLASER 0 12.5746944716236779 -16.3375646510645396 64.3481389351106401 12.5746944716236779 -16.3375646510645396 64.3481389351106401 976054998.251942039 myhost 976054998.251942039
FLASER 0 12.4984939892514362 -17.3754861776748442 64.2996753674323287 12.4984939892514362 -17.3754861776748442 64.2996753674323287 976054994.792529941 myhost 976054994.792529941
FLASER 0 12.4311809730497913 -18.3513406768378289 64.5723104128760212 12.4311809730497913 -18.3513406768378289 64.5723104128760212 976054991.270521045 myhost 976054991.270521045
FLASER 0 12.5800360150130022 -19.2170275519267122 64.5653480538459803 12.5800360150130022 -19.2170275519267122 64.5653480538459803 976054983.195978999 myhost 976054983.195978999
FLASER 0 12.6389826195856667 -19.2254663470960629 63.6819841002515901 12.6389826195856667 -19.2254663470960629 63.6819841002515901 976054982.965229988 myhost 976054982.965229988
FLASER 0 12.6121635447283982 -19.2388927977091413 64.0548840639946349 12.6121635447283982 -19.2388927977091413 64.0548840639946349 976054982.100491047 myhost 976054982.100491047
FLASER 0 12.6549646869767987 -19.2592115459298903 63.3313997783634193 12.6549646869767987 -19.2592115459298903 63.3313997783634193 976054980.387295961 myhost 976054980.387295961
FLASER 0 12.6795758714497921 -19.3266501454615742 63.1376533578663839 12.6795758714497921 -19.3266501454615742 63.1376533578663839 976054979.721052051 myhost 976054979.721052051
FLASER 0 12.1568291216861315 -19.3107043397845111 62.8125420735088582 12.1568291216861315 -19.3107043397845111 62.8125420735088582 976054975.823194981 myhost 976054975.823194981
FLASER 0 11.1307878777583973 -19.3228048184750172 62.8967878633970372 11.1307878777583973 -19.3228048184750172 62.8967878633970372 976054972.462164998 myhost 976054972.462164998
FLASER 0 10.2169710536156071 -19.3142797724671311 62.7506380617922517 10.2169710536156071 -19.3142797724671311 62.7506380617922517 976054970.136680961 myhost 976054970.136680961
FLASER 0 9.24316490284819103 -19.1905623103163059 62.6638778265861518 9.24316490284819103 -19.1905623103163059 62.6638778265861518 976054966.272647023 myhost 976054966.272647023
FLASER 0 8.91060935163292811 -19.1452382553347284 62.7021988586201928 8.91060935163292811 -19.1452382553347284 62.7021988586201928 976054964.304126024 myhost 976054964.304126024
FLASER 0 7.93380426402395766 -18.9485144029491224 62.6674167658763821 7.93380426402395766 -18.9485144029491224 62.6674167658763821 976054960.978096008 myhost 976054960.978096008
FLASER 0 7.01127855026341429 -18.8041216675937974 62.730827453300293 7.01127855026341429 -18.8041216675937974 62.730827453300293 976054958.722529054 myhost 976054958.722529054
FLASER 0 5.97967753545174752 -18.7356484704056818 62.8019571532241017 5.97967753545174752 -18.7356484704056818 62.8019571532241017 976054954.885220051 myhost 976054954.885220051
FLASER 0 4.99744529835210827 -18.7978356649422089 62.955979483624688 4.99744529835210827 -18.7978356649422089 62.955979483624688 976054950.857427955 myhost 976054950.857427955
FLASER 0 4.42656776773529792 -18.8358584344440381 62.9006184419992493 4.42656776773529792 -18.8358584344440381 62.9006184419992493 976054948.22379601 myhost 976054948.22379601
FLASER 0 4.15404132675025917 -18.8122999607285379 62.6394866549683158 4.15404132675025917 -18.8122999607285379 62.6394866549683158 976054947.167870998 myhost 976054947.167870998
FLASER 0 2.84448399433830401 -18.6085799988523704 62.9604191384386596 2.84448399433830401 -18.6085799988523704 62.9604191384386596 976054943.44757998 myhost 976054943.44757998
FLASER 0 2.31733635174935371 -18.6685395990609457 63.0093933202011627 2.31733635174935371 -18.6685395990609457 63.0093933202011627 976054940.717440963 myhost 976054940.717440963
FLASER 0 1.41130120089128486 -18.9021786247798786 63.0957959006990663 1.41130120089128486 -18.9021786247798786 63.0957959006990663 976054937.271082044 myhost 976054937.271082044
FLASER 0 1.11877578140989509 -18.9990768388778619 62.6522684108753936 1.11877578140989509 -18.9990768388778619 62.6522684108753936 976054933.844755054 myhost 976054933.844755054
FLASER 0 0.53486736813569713 -18.9244485516487906 62.7616258464364734 0.53486736813569713 -18.9244485516487906 62.7616258464364734 976054931.740856051 myhost 976054931.740856051
FLASER 0 -0.471477368195814484 -18.8586126396866369 62.7127573262514986 -0.471477368195814484 -18.8586126396866369 62.7127573262514986 976054928.296638966 myhost 976054928.296638966
FLASER 0 -1.68986846864148332 -18.7119520462834927 62.7225497083009458 -1.68986846864148332 -18.7119520462834927 62.7225497083009458 976054925.946200013 myhost 976054925.946200013
FLASER 0 -1.80603247459069238 -18.6757936941145815 62.7405615403019041 -1.80603247459069238 -18.6757936941145815 62.7405615403019041 976054923.119822979 myhost 976054923.119822979
FLASER 0 -2.8097723851112506 -18.6145887940457655 62.8496627478140937 -2.8097723851112506 -18.6145887940457655 62.8496627478140937 976054919.633813024 myhost 976054919.633813024
FLASER 0 -3.76555515966881105 -18.6374143085317492 62.9843865661537663 -3.76555515966881105 -18.6374143085317492 62.9843865661537663 976054916.236240983 myhost 976054916.236240983
FLASER 0 -4.36626254098237698 -18.7421814191884799 62.9429410755877683 -4.36626254098237698 -18.7421814191884799 62.9429410755877683 976054914.186699986 myhost 976054914.186699986
FLASER 0 -4.39699748051467143 -18.7780708333165229 62.4342765752356783 -4.39699748051467143 -18.7780708333165229 62.4342765752356783 976054912.654194951 myhost 976054912.654194951
FLASER 0 -4.43576071953725837 -18.8225355740780564 61.8472397280259756 -4.43576071953725837 -18.8225355740780564 61.8472397280259756 976054911.273964047 myhost 976054911.273964047
FLASER 0 -4.49747317429153171 -18.6243634980345831 61.3365920456145304 -4.49747317429153171 -18.6243634980345831 61.3365920456145304 976054908.157253981 myhost 976054908.157253981
FLASER 0 -4.608114904711198 -17.6303113594180267 61.417871496448015 -4.608114904711198 -17.6303113594180267 61.417871496448015 976054904.772310972 myhost 976054904.772310972
FLASER 0 -4.80759437225457376 -16.6515596731530877 61.5113755057060985 -4.80759437225457376 -16.6515596731530877 61.5113755057060985 976054900.841032982 myhost 976054900.841032982
FLASER 0 -5.13692742073264963 -15.7030638832000768 61.6027256453986993 -5.13692742073264963 -15.7030638832000768 61.6027256453986993 976054898.522992015 myhost 976054898.522992015
FLASER 0 -5.47019984246047741 -14.7808171565152513 61.6112534145818245 -5.47019984246047741 -14.7808171565152513 61.6112534145818245 976054894.745792985 myhost 976054894.745792985
FLASER 0 -5.8155905027409549 -13.8546401261840302 61.6311660651188191 -5.8155905027409549 -13.8546401261840302 61.6311660651188191 976054891.428750038 myhost 976054891.428750038
FLASER 0 -5.86847583118802074 -13.7439432833508963 61.5871404771218778 -5.86847583118802074 -13.7439432833508963 61.5871404771218778 976054889.620823979 myhost 976054889.620823979
FLASER 0 -5.89720531449667718 -13.7269522197275968 61.1005293735181993 -5.89720531449667718 -13.7269522197275968 61.1005293735181993 976054887.725877047 myhost 976054887.725877047
FLASER 0 -5.7617056087294598 -12.7584378135483956 61.1586534121613496 -5.7617056087294598 -12.7584378135483956 61.1586534121613496 976054884.584965944 myhost 976054884.584965944
FLASER 0 -5.69115538739734639 -11.7413993267411385 61.2221475533789956 -5.69115538739734639 -11.7413993267411385 61.2221475533789956 976054881.393949032 myhost 976054881.393949032
FLASER 0 -5.67369265206466089 -10.9409462105632169 61.2548643428588164 -5.67369265206466089 -10.9409462105632169 61.2548643428588164 976054878.248950005 myhost 976054878.248950005
FLASER 0 -5.6914635236174167 -9.91925553527364734 61.2846846739877691 -5.6914635236174167 -9.91925553527364734 61.2846846739877691 976054873.458250999 myhost 976054873.458250999
FLASER 0 -5.93763091101733842 -9.06880180374530553 61.5689380211156205 -5.93763091101733842 -9.06880180374530553 61.5689380211156205 976054869.538156033 myhost 976054869.538156033
FLASER 0 -5.96631925949713882 -8.86453385187699183 61.1247434924916746 -5.96631925949713882 -8.86453385187699183 61.1247434924916746 976054867.813155055 myhost 976054867.813155055
FLASER 0 -5.84154888648575721 -8.03282773614750134 61.1620647133134767 -5.84154888648575721 -8.03282773614750134 61.1620647133134767 976054864.69551003 myhost 976054864.69551003
FLASER 0 -5.75487087528929209 -7.13852386641983738 61.1520085325513136 -5.75487087528929209 -7.13852386641983738 61.1520085325513136 976054861.471557021 myhost 976054861.471557021
FLASER 0 -5.61875894726536096 -6.18747121157840141 61.1654699906384138 -5.61875894726536096 -6.18747121157840141 61.1654699906384138 976054856.720473051 myhost 976054856.720473051
FLASER 0 -5.75667393091245749 -5.46809606208006471 61.4577925285228091 -5.75667393091245749 -5.46809606208006471 61.4577925285228091 976054852.732033968 myhost 976054852.732033968
FLASER 0 -5.89529143000125533 -4.68987001722403818 61.4601179964197541 -5.89529143000125533 -4.68987001722403818 61.4601179964197541 976054851.265519977 myhost 976054851.265519977
FLASER 0 -5.92300727925193282 -4.62692407971232988 61.4620383144490532 -5.92300727925193282 -4.62692407971232988 61.4620383144490532 976054849.601546049 myhost 976054849.601546049
FLASER 0 -6.08168934188697818 -3.55997045324080474 61.3663383986875388 -6.08168934188697818 -3.55997045324080474 61.3663383986875388 976054846.130668044 myhost 976054846.130668044
FLASER 0 -6.16983032276917598 -3.2551151654482382 61.0279606144854014 -6.16983032276917598 -3.2551151654482382 61.0279606144854014 976054843.974800944 myhost 976054843.974800944
FLASER 0 -5.90635693771678039 -2.72693550852113642 60.6546053780788554 -5.90635693771678039 -2.72693550852113642 60.6546053780788554 976054840.434272051 myhost 976054840.434272051
FLASER 0 -5.57721061573088051 -2.3366416380640942 60.6367561050766639 -5.57721061573088051 -2.3366416380640942 60.6367561050766639 976054837.685853958 myhost 976054837.685853958
FLASER 0 -5.02918710590477236 -1.41637679201190925 60.7029401174989971 -5.02918710590477236 -1.41637679201190925 60.7029401174989971 976054834.162400007 myhost 976054834.162400007
FLASER 0 -4.54966608480577861 -0.616387842733797431 60.7540327437561558 -4.54966608480577861 -0.616387842733797431 60.7540327437561558 976054830.380720019 myhost 976054830.380720019
FLASER 0 -4.16679882463183837 0.0817262224053580261 60.7077295538262476 -4.16679882463183837 0.0817262224053580261 60.7077295538262476 976054827.427181005 myhost 976054827.427181005
FLASER 0 -4.18968441304423767 0.13917796693504475 60.1187972387127658 -4.18968441304423767 0.13917796693504475 60.1187972387127658 976054825.774587035 myhost 976054825.774587035
FLASER 0 -3.60010486290728648 0.302006632760195848 59.7273486567400269 -3.60010486290728648 0.302006632760195848 59.7273486567400269 976054822.253613949 myhost 976054822.253613949
FLASER 0 -2.62721102585345756 0.141693737945235571 59.295636077287611 -2.62721102585345756 0.141693737945235571 59.295636077287611 976054818.412994027 myhost 976054818.412994027
FLASER 0 -1.73062587588030548 -0.274696569905300891 59.3241175578722135 -1.73062587588030548 -0.274696569905300891 59.3241175578722135 976054814.996695995 myhost 976054814.996695995
FLASER 0 -0.986396513868624036 -0.513282551253039454 58.8747545040838318 -0.986396513868624036 -0.513282551253039454 58.8747545040838318 976054810.954632044 myhost 976054810.954632044
FLASER 0 -0.991427106003177627 -0.490951054902519002 58.3700185804593019 -0.991427106003177627 -0.490951054902519002 58.3700185804593019 976054809.582697988 myhost 976054809.582697988
FLASER 0 -0.952657410450467479 -0.492350516950805173 57.828403066225512 -0.952657410450467479 -0.492350516950805173 57.828403066225512 976054808.431081057 myhost 976054808.431081057
FLASER 0 -0.851934228621859746 -0.548968463321206079 57.2299833696317251 -0.851934228621859746 -0.548968463321206079 57.2299833696317251 976054807.245179057 myhost 976054807.245179057
FLASER 0 -0.833434930196088608 -0.596200549838118987 56.6681954877112375 -0.833434930196088608 -0.596200549838118987 56.6681954877112375 976054805.851264 myhost 976054805.851264
FLASER 0 -0.848126316594659202 -0.66606785336044394 56.1653238889113808 -0.848126316594659202 -0.66606785336044394 56.1653238889113808 976054804.671064019 myhost 976054804.671064019
FLASER 0 -0.885496818700358901 -0.697354638326865395 55.612134419686484 -0.885496818700358901 -0.697354638326865395 55.612134419686484 976054803.48151803 myhost 976054803.48151803
FLASER 0 -0.918759862623795498 -0.658620526366988979 55.0534452473874651 -0.918759862623795498 -0.658620526366988979 55.0534452473874651 976054803.218426943 myhost 976054803.218426943
FLASER 0 -0.855713292621992472 -0.105456706724167404 54.7827359094857371 -0.855713292621992472 -0.105456706724167404 54.7827359094857371 976054797.430328965 myhost 976054797.430328965
FLASER 0 -0.885208047067921555 0.836352777071372011 55.1447883211680931 -0.885208047067921555 0.836352777071372011 55.1447883211680931 976054794.100757003 myhost 976054794.100757003
FLASER 0 -0.969790399527336811 1.63422950340955997 55.2933908568072354 -0.969790399527336811 1.63422950340955997 55.2933908568072354 976054788.693269968 myhost 976054788.693269968
FLASER 0 -1.0810886610122532 2.09517802513041351 54.8392821241212332 -1.0810886610122532 2.09517802513041351 54.8392821241212332 976054785.624017954 myhost 976054785.624017954
FLASER 0 -0.988501427086171391 3.063207676906754 54.9188152555107933 -0.988501427086171391 3.063207676906754 54.9188152555107933 976054782.206048012 myhost 976054782.206048012
FLASER 0 -0.949367487817354916 3.14311116594328155 55.4114153823706701 -0.949367487817354916 3.14311116594328155 55.4114153823706701 976054779.61056006 myhost 976054779.61056006
FLASER 0 -0.909564872893457443 3.20912721728447847 55.9249029458112616 -0.909564872893457443 3.20912721728447847 55.9249029458112616 976054778.401016951 myhost 976054778.401016951
FLASER 0 -0.910247084326395228 3.23080303693695736 56.4265212848903275 -0.910247084326395228 3.23080303693695736 56.4265212848903275 976054775.608937979 myhost 976054775.608937979
FLASER 0 -0.923830737611516462 3.26173684321679991 56.6830987306749705 -0.923830737611516462 3.26173684321679991 56.6830987306749705 976054773.719692945 myhost 976054773.719692945
FLASER 0 -0.930396216186260117 3.20003797993340822 56.1477750798167392 -0.930396216186260117 3.20003797993340822 56.1477750798167392 976054772.462991953 myhost 976054772.462991953
FLASER 0 -0.950396624325451245 3.17576982269677188 55.5927673673230984 -0.950396624325451245 3.17576982269677188 55.5927673673230984 976054771.245118976 myhost 976054771.245118976
FLASER 0 -1.01736202064750492 3.16049412764665671 55.0677148380587909 -1.01736202064750492 3.16049412764665671 55.0677148380587909 976054770.799499989 myhost 976054770.799499989
FLASER 0 -1.06222846347873823 3.15951314236008596 54.5138562517527134 -1.06222846347873823 3.15951314236008596 54.5138562517527134 976054768.809118986 myhost 976054768.809118986
FLASER 0 -1.09901932100589517 3.21426402255264687 53.9718015012311056 -1.09901932100589517 3.21426402255264687 53.9718015012311056 976054767.650089025 myhost 976054767.650089025
FLASER 0 -1.12000625450437874 3.27626123656142809 53.4526768429386721 -1.12000625450437874 3.27626123656142809 53.4526768429386721 976054766.407819033 myhost 976054766.407819033
FLASER 0 -1.11123628518539475 3.34137776325362079 52.9108818489798338 -1.11123628518539475 3.34137776325362079 52.9108818489798338 976054765.207963943 myhost 976054765.207963943
FLASER 0 -1.0633384723017143 3.37673643366344622 52.3714249061389054 -1.0633384723017143 3.37673643366344622 52.3714249061389054 976054764.324916959 myhost 976054764.324916959
FLASER 0 -0.97372995493148351 2.8534086591028589 51.8929144496520394 -0.97372995493148351 2.8534086591028589 51.8929144496520394 976054761.336140037 myhost 976054761.336140037
FLASER 0 -0.912524954945792666 2.13511036511015906 51.8624852947958885 -0.912524954945792666 2.13511036511015906 51.8624852947958885 976054757.583170056 myhost 976054757.583170056
FLASER 0 -0.957559825970023537 1.09972378209098287 51.866467823494915 -0.957559825970023537 1.09972378209098287 51.866467823494915 976054754.286677957 myhost 976054754.286677957
FLASER 0 -0.941676708827049347 0.136071192640044442 51.5935362957021866 -0.941676708827049347 0.136071192640044442 51.5935362957021866 976054750.709782958 myhost 976054750.709782958
FLASER 0 -0.780285954447733854 0.10016461914682119 51.0702324339633478 -0.780285954447733854 0.10016461914682119 51.0702324339633478 976054748.924438953 myhost 976054748.924438953
FLASER 0 -0.746021855145982404 0.074244599428040986 50.585121714712642 -0.746021855145982404 0.074244599428040986 50.585121714712642 976054747.426018953 myhost 976054747.426018953
FLASER 0 -0.993854076620885762 0.0271036218902545555 50.1968133160241479 -0.993854076620885762 0.0271036218902545555 50.1968133160241479 976054745.554749966 myhost 976054745.554749966
FLASER 0 -2.0566719884514475 0.113513326938084885 50.2245899911644855 -2.0566719884514475 0.113513326938084885 50.2245899911644855 976054741.513214946 myhost 976054741.513214946
FLASER 0 -2.82912887625903231 0.172231360356438518 50.2316104619007717 -2.82912887625903231 0.172231360356438518 50.2316104619007717 976054738.624726057 myhost 976054738.624726057
FLASER 0 -3.66589009443966551 0.148353198831758598 50.2861322901017331 -3.66589009443966551 0.148353198831758598 50.2861322901017331 976054735.779696941 myhost 976054735.779696941
FLASER 0 -4.30559674390977953 0.157075575106196463 50.2511184168138669 -4.30559674390977953 0.157075575106196463 50.2511184168138669 976054733.49290204 myhost 976054733.49290204
FLASER 0 -5.30659576052841953 0.131259288895440474 50.2658201405491099 -5.30659576052841953 0.131259288895440474 50.2658201405491099 976054730.350921035 myhost 976054730.350921035
FLASER 0 -6.24617526080329011 0.110840977152530565 50.3481941565415809 -6.24617526080329011 0.110840977152530565 50.3481941565415809 976054727.772779942 myhost 976054727.772779942
FLASER 0 -6.51936436833988964 0.0828763646508655222 50.1994964168137798 -6.51936436833988964 0.0828763646508655222 50.1994964168137798 976054725.293645024 myhost 976054725.293645024
FLASER 0 -6.5553254374104748 0.0355834152474118828 49.6804606752370503 -6.5553254374104748 0.0355834152474118828 49.6804606752370503 976054723.764201045 myhost 976054723.764201045
FLASER 0 -6.58500919353503544 -0.00469518998268137529 49.0951806732369889 -6.58500919353503544 -0.00469518998268137529 49.0951806732369889 976054722.499624968 myhost 976054722.499624968
FLASER 0 -6.62081980462192909 0.170086710769382088 48.6310607697359245 -6.62081980462192909 0.170086710769382088 48.6310607697359245 976054720.219861031 myhost 976054720.219861031
FLASER 0 -6.58436884755926055 1.20305351724870002 48.6769221721415661 -6.58436884755926055 1.20305351724870002 48.6769221721415661 976054716.412511945 myhost 976054716.412511945
FLASER 0 -6.58731274605580008 1.67749580314858715 48.6574968970640924 -6.58731274605580008 1.67749580314858715 48.6574968970640924 976054714.678264022 myhost 976054714.678264022
FLASER 0 -6.59572109862667677 2.56320175006820428 48.6950346737825654 -6.59572109862667677 2.56320175006820428 48.6950346737825654 976054711.615972996 myhost 976054711.615972996
FLASER 0 -6.54552554489278648 3.35866975640964283 49.076563109393156 -6.54552554489278648 3.35866975640964283 49.076563109393156 976054706.838539958 myhost 976054706.838539958
FLASER 0 -6.52211959158947252 3.39477593967234181 49.6077482314734652 -6.52211959158947252 3.39477593967234181 49.6077482314734652 976054705.58256197 myhost 976054705.58256197
FLASER 0 -6.52449559518191258 3.39192759126477972 50.1096963880768982 -6.52449559518191258 3.39192759126477972 50.1096963880768982 976054703.249981046 myhost 976054703.249981046
FLASER 0 -6.53004441984310624 3.44212256084901735 50.2169519030361755 -6.53004441984310624 3.44212256084901735 50.2169519030361755 976054700.399083972 myhost 976054700.399083972
FLASER 0 -6.53341698112135649 3.41563153227567939 49.880776145247637 -6.53341698112135649 3.41563153227567939 49.880776145247637 976054699.705500007 myhost 976054699.705500007
FLASER 0 -6.55449732810351549 3.37075825866533396 49.3462710833058438 -6.55449732810351549 3.37075825866533396 49.3462710833058438 976054698.452173948 myhost 976054698.452173948
FLASER 0 -6.62027681311225447 3.42605790896853657 48.7627124910801157 -6.62027681311225447 3.42605790896853657 48.7627124910801157 976054697.367717981 myhost 976054697.367717981
FLASER 0 -6.68882758609236916 3.45893924948106424 48.2363035462012562 -6.68882758609236916 3.45893924948106424 48.2363035462012562 976054696.295132995 myhost 976054696.295132995
FLASER 0 -6.67717830350527564 3.434657405394824 47.5244459924050275 -6.67717830350527564 3.434657405394824 47.5244459924050275 976054695.748600006 myhost 976054695.748600006
FLASER 0 -6.69865561015699029 3.47984171200175973 47.614510470403502 -6.69865561015699029 3.47984171200175973 47.614510470403502 976054695.119143963 myhost 976054695.119143963
FLASER 0 -6.68904176100049419 3.52573465873842506 47.0680023743078877 -6.68904176100049419 3.52573465873842506 47.0680023743078877 976054693.352246046 myhost 976054693.352246046
FLASER 0 -6.69786717512395224 3.54854597960975804 46.5178670593432599 -6.69786717512395224 3.54854597960975804 46.5178670593432599 976054692.252109051 myhost 976054692.252109051
FLASER 0 -6.68352691493614248 3.58871048938134019 45.9696643600801522 -6.68352691493614248 3.58871048938134019 45.9696643600801522 976054691.621176004 myhost 976054691.621176004
FLASER 0 -6.64646985491927822 3.47425548652683513 45.5204532937520199 -6.64646985491927822 3.47425548652683513 45.5204532937520199 976054688.421062946 myhost 976054688.421062946
FLASER 0 -6.69502630524134901 2.52131195067557234 45.5088801665877796 -6.69502630524134901 2.52131195067557234 45.5088801665877796 976054684.928572059 myhost 976054684.928572059
FLASER 0 -6.66961865044201208 1.59513402641963964 45.5726168818410073 -6.66961865044201208 1.59513402641963964 45.5726168818410073 976054681.237717032 myhost 976054681.237717032
FLASER 0 -6.62934042967369752 0.927481254650514897 45.6108846349913151 -6.62934042967369752 0.927481254650514897 45.6108846349913151 976054678.908885002 myhost 976054678.908885002
FLASER 0 -6.63270259071363721 -0.0879321785060891842 45.5719144361693438 -6.63270259071363721 -0.0879321785060891842 45.5719144361693438 976054675.470793962 myhost 976054675.470793962
FLASER 0 -6.64224165164675462 -1.0951654130763353 45.4282082036832406 -6.64224165164675462 -1.0951654130763353 45.4282082036832406 976054671.891453028 myhost 976054671.891453028
FLASER 0 -6.69534826824385298 -2.06496749340630403 45.4026970689480791 -6.69534826824385298 -2.06496749340630403 45.4026970689480791 976054667.773195028 myhost 976054667.773195028
FLASER 0 -6.66029517756693856 -2.06031256983566591 44.8897458729927692 -6.66029517756693856 -2.06031256983566591 44.8897458729927692 976054667.295349002 myhost 976054667.295349002
FLASER 0 -6.62028833727415744 -2.10212609424424679 44.3309566887551227 -6.62028833727415744 -2.10212609424424679 44.3309566887551227 976054666.105666995 myhost 976054666.105666995
FLASER 0 -7.56889683577091699 -2.02345530874669421 43.8831636459634069 -7.56889683577091699 -2.02345530874669421 43.8831636459634069 976054660.611902952 myhost 976054660.611902952
FLASER 0 -8.5750122144552261 -1.90628601725215208 44.2543985073511976 -8.5750122144552261 -1.90628601725215208 44.2543985073511976 976054655.81843102 myhost 976054655.81843102
