FLASER 0 -0.717769 -0.0607679 81.6717 -0.717769 -0.0607679 81.6717 976055541.979699969 myhost 976055541.979699969
FLASER 0 -0.495843461970415622 -0.0536284548503402486 81.6614118172788181 -0.495843461970415622 -0.0536284548503402486 81.6614118172788181 976055541.100237966 myhost 976055541.100237966
FLASER 0 -1.37603956546945883 -0.0453196859620866171 81.8960617291942867 -1.37603956546945883 -0.0453196859620866171 81.8960617291942867 976055536.721703053 myhost 976055536.721703053
FLASER 0 -1.40892475541454232 -0.0213419697496275568 82.3965534537960167 -1.40892475541454232 -0.0213419697496275568 82.3965534537960167 976055533.945698023 myhost 976055533.945698023
FLASER 0 -1.51482956881328712 -0.00177515499550546965 82.9202407219965494 -1.51482956881328712 -0.00177515499550546965 82.9202407219965494 976055532.637850046 myhost 976055532.637850046
FLASER 0 -1.51273375223151429 -0.00688474961319917016 83.3976751063552797 -1.51273375223151429 -0.00688474961319917016 83.3976751063552797 976055532.540510058 myhost 976055532.540510058
FLASER 0 -1.47952800519930783 0.0196543093220477895 82.7806259463123268 -1.47952800519930783 0.0196543093220477895 82.7806259463123268 976055532.527529001 myhost 976055532.527529001
FLASER 0 -1.48655518969162359 -0.254671993971337662 83.4005023599633688 -1.48655518969162359 -0.254671993971337662 83.4005023599633688 976055528.370638967 myhost 976055528.370638967
FLASER 0 -1.43197891421937218 -1.27335169705338314 83.327157912937281 -1.43197891421937218 -1.27335169705338314 83.327157912937281 976055524.895115972 myhost 976055524.895115972
FLASER 0 -1.38244971792614635 -1.77498912323049507 83.3593642564931088 -1.38244971792614635 -1.77498912323049507 83.3593642564931088 976055522.761944056 myhost 976055522.761944056
FLASER 0 -1.25105044980642699 -2.63225157160609591 83.3094706083845153 -1.25105044980642699 -2.63225157160609591 83.3094706083845153 976055519.400673985 myhost 976055519.400673985
FLASER 0 -1.37343803786448304 -3.64316404125548132 83.2198675923094413 -1.37343803786448304 -3.64316404125548132 83.2198675923094413 976055518.25672996 myhost 976055518.25672996
FLASER 0 -1.34299607058593828 -4.59560945648669517 83.2696180221659574 -1.34299607058593828 -4.59560945648669517 83.2696180221659574 976055512.837046981 myhost 976055512.837046981
FLASER 0 -1.38024707755207854 -5.39031280394276191 83.1918434516324368 -1.38024707755207854 -5.39031280394276191 83.1918434516324368 976055509.580526948 myhost 976055509.580526948
FLASER 0 -1.43229848581143715 -6.36781322796900096 83.2789378238001916 -1.43229848581143715 -6.36781322796900096 83.2789378238001916 976055508.909240007 myhost 976055508.909240007
FLASER 0 -1.42991348583602895 -5.7041970070946979 83.1589663246030284 -1.42991348583602895 -5.7041970070946979 83.1589663246030284 976055508.550624967 myhost 976055508.550624967
FLASER 0 -1.45802326854795283 -6.69627106103924952 83.2300005180228055 -1.45802326854795283 -6.69627106103924952 83.2300005180228055 976055504.83040297 myhost 976055504.83040297
FLASER 0 -1.47392926616329967 -7.7211977963750158 83.1828212392249497 -1.47392926616329967 -7.7211977963750158 83.1828212392249497 976055503.414610028 myhost 976055503.414610028
FLASER 0 -1.55315577129779214 -8.76231672579173093 83.2384896491056452 -1.55315577129779214 -8.76231672579173093 83.2384896491056452 976055498.876471043 myhost 976055498.876471043
FLASER 0 -1.62318580258603795 -9.8365245533893475 83.1683627953455158 -1.62318580258603795 -9.8365245533893475 83.1683627953455158 976055494.397979975 myhost 976055494.397979975
FLASER 0 -1.60200664176068708 -10.8029378064881598 83.3917101528754472 -1.60200664176068708 -10.8029378064881598 83.3917101528754472 976055490.364580989 myhost 976055490.364580989
FLASER 0 -1.5010273058052459 -11.8249690522397337 83.3156850733006564 -1.5010273058052459 -11.8249690522397337 83.3156850733006564 976055486.789108992 myhost 976055486.789108992
FLASER 0 -1.4771851088646033 -12.9163148651855444 83.38386554480401 -1.4771851088646033 -12.9163148651855444 83.38386554480401 976055483.134155035 myhost 976055483.134155035
FLASER 0 -1.39714836355324201 -13.9264403409658399 83.2145247960072965 -1.39714836355324201 -13.9264403409658399 83.2145247960072965 976055479.47656095 myhost 976055479.47656095
FLASER 0 -1.47672086969742544 -14.6391081154840368 83.1994626157603676 -1.47672086969742544 -14.6391081154840368 83.1994626157603676 976055478.906800032 myhost 976055478.906800032
FLASER 0 -1.42758099280633566 -14.2736988958923305 83.2041952540665193 -1.42758099280633566 -14.2736988958923305 83.2041952540665193 976055478.67702198 myhost 976055478.67702198
FLASER 0 -1.49955083688111168 -15.1096669623392366 83.3645379034056049 -1.49955083688111168 -15.1096669623392366 83.3645379034056049 976055475.281986952 myhost 976055475.281986952
FLASER 0 -1.5030517008557629 -16.106169093254973 83.2900383984780888 -1.5030517008557629 -16.106169093254973 83.2900383984780888 976055473.919082999 myhost 976055473.919082999
FLASER 0 -1.45487270935187696 -17.061251169439597 83.0959162363652979 -1.45487270935187696 -17.061251169439597 83.0959162363652979 976055469.748039961 myhost 976055469.748039961
FLASER 0 -1.43603381244756401 -17.0905412285777096 82.5304395259544776 -1.43603381244756401 -17.0905412285777096 82.5304395259544776 976055466.453837991 myhost 976055466.453837991
FLASER 0 -1.38360483325376693 -17.1016507178520172 82.0091309662200558 -1.38360483325376693 -17.1016507178520172 82.0091309662200558 976055465.504089952 myhost 976055465.504089952
FLASER 0 -2.03709038363729844 -17.1445114082196426 81.5953350635922163 -2.03709038363729844 -17.1445114082196426 81.5953350635922163 976055461.446989059 myhost 976055461.446989059
FLASER 0 -3.08462423351422022 -17.1012168813390311 81.632291868896516 -3.08462423351422022 -17.1012168813390311 81.632291868896516 976055457.44817102 myhost 976055457.44817102
FLASER 0 -4.12902107275582253 -17.0331803964241359 81.6068076388183243 -4.12902107275582253 -17.0331803964241359 81.6068076388183243 976055453.926208019 myhost 976055453.926208019
FLASER 0 -5.13863884025148732 -16.9551325217745621 81.6008262342725033 -5.13863884025148732 -16.9551325217745621 81.6008262342725033 976055450.213881969 myhost 976055450.213881969
FLASER 0 -6.12321156726203331 -16.8400613871556573 81.3978921258386379 -6.12321156726203331 -16.8400613871556573 81.3978921258386379 976055446.14379096 myhost 976055446.14379096
FLASER 0 -6.15092761996985082 -16.89404537886913 80.8932885675916395 -6.15092761996985082 -16.89404537886913 80.8932885675916395 976055445.652809978 myhost 976055445.652809978
FLASER 0 -6.20312026544003103 -16.9102221365475955 80.3472018085869735 -6.20312026544003103 -16.9102221365475955 80.3472018085869735 976055445.645979047 myhost 976055445.645979047
FLASER 0 -6.19940914874055693 -16.4141157687981938 79.9939858659976153 -6.19940914874055693 -16.4141157687981938 79.9939858659976153 976055441.582537055 myhost 976055441.582537055
FLASER 0 -6.07244439570045191 -15.5070047407051899 80.0248710306025259 -6.07244439570045191 -15.5070047407051899 80.0248710306025259 976055437.667148948 myhost 976055437.667148948
FLASER 0 -5.99224271493155669 -14.5406612428771904 80.0717560124569445 -5.99224271493155669 -14.5406612428771904 80.0717560124569445 976055433.599251032 myhost 976055433.599251032
FLASER 0 -5.97520336263568019 -13.5383354778779701 80.1531615769677899 -5.97520336263568019 -13.5383354778779701 80.1531615769677899 976055429.681280971 myhost 976055429.681280971
FLASER 0 -6.00949365690204473 -12.5489975048990878 80.1710154790613387 -6.00949365690204473 -12.5489975048990878 80.1710154790613387 976055425.711969972 myhost 976055425.711969972
FLASER 0 -6.1198304354719113 -11.5093444284145896 80.2265952692541759 -6.1198304354719113 -11.5093444284145896 80.2265952692541759 976055422.191877961 myhost 976055422.191877961
FLASER 0 -6.24287145157175249 -10.5498196719488178 79.905431229201767 -6.24287145157175249 -10.5498196719488178 79.905431229201767 976055418.31693995 myhost 976055418.31693995
FLASER 0 -6.33742483944306656 -10.6056136751500816 79.5106009430254375 -6.33742483944306656 -10.6056136751500816 79.5106009430254375 976055417.471271992 myhost 976055417.471271992
FLASER 0 -6.30240093150679215 -10.5995119036945766 78.9768925797640264 -6.30240093150679215 -10.5995119036945766 78.9768925797640264 976055417.466006041 myhost 976055417.466006041
FLASER 0 -6.31685338683649711 -10.5903397852338301 78.4293897942657168 -6.31685338683649711 -10.5903397852338301 78.4293897942657168 976055414.912289023 myhost 976055414.912289023
FLASER 0 -6.29476681501364421 -10.5655526085434079 77.9614926053905464 -6.29476681501364421 -10.5655526085434079 77.9614926053905464 976055413.651309967 myhost 976055413.651309967
FLASER 0 -6.25866191675416772 -10.5061636345855778 77.4553203573272526 -6.25866191675416772 -10.5061636345855778 77.4553203573272526 976055413.193675041 myhost 976055413.193675041
FLASER 0 -6.19512980046667838 -10.8663337903713959 77.0828870650303912 -6.19512980046667838 -10.8663337903713959 77.0828870650303912 976055408.867391944 myhost 976055408.867391944
FLASER 0 -6.16868437236282663 -11.5996363556419055 76.9994986440852784 -6.16868437236282663 -11.5996363556419055 76.9994986440852784 976055405.769880056 myhost 976055405.769880056
FLASER 0 -6.16619480585647128 -12.5422912805975315 76.9566492374408284 -6.16619480585647128 -12.5422912805975315 76.9566492374408284 976055402.513499975 myhost 976055402.513499975
FLASER 0 -6.22538518259133511 -13.5213840529596343 77.0947870725312896 -6.22538518259133511 -13.5213840529596343 77.0947870725312896 976055400.819437027 myhost 976055400.819437027
FLASER 0 -6.09601863657892196 -14.4428364638959188 77.1846555607268385 -6.09601863657892196 -14.4428364638959188 77.1846555607268385 976055396.659829974 myhost 976055396.659829974
FLASER 0 -5.82252237099380832 -15.3976983708336181 77.3491367479714285 -5.82252237099380832 -15.3976983708336181 77.3491367479714285 976055392.265207052 myhost 976055392.265207052
FLASER 0 -5.59767702751096508 -16.1996928140553962 77.242075681562909 -5.59767702751096508 -16.1996928140553962 77.242075681562909 976055388.668030024 myhost 976055388.668030024
FLASER 0 -5.52018245802486174 -16.4119552284566055 77.2801289100559359 -5.52018245802486174 -16.4119552284566055 77.2801289100559359 976055388.12946105 myhost 976055388.12946105
FLASER 0 -5.28538273926099134 -17.0940689568119915 76.8732906042574342 -5.28538273926099134 -17.0940689568119915 76.8732906042574342 976055384.399888992 myhost 976055384.399888992
FLASER 0 -5.21909665927035693 -17.1146442233831984 76.2472362086244857 -5.21909665927035693 -17.1146442233831984 76.2472362086244857 976055383.861714005 myhost 976055383.861714005
FLASER 0 -5.21125137543512551 -17.2290187084271622 75.7163895193713898 -5.21125137543512551 -17.2290187084271622 75.7163895193713898 976055383.855666995 myhost 976055383.855666995
FLASER 0 -5.22343336458388219 -17.246262871763232 75.1574723768957114 -5.22343336458388219 -17.246262871763232 75.1574723768957114 976055380.707190037 myhost 976055380.707190037
FLASER 0 -5.2491507504444197 -17.2663213097304684 74.6440642705881743 -5.2491507504444197 -17.2663213097304684 74.6440642705881743 976055379.426062942 myhost 976055379.426062942
FLASER 0 -5.29670337332665486 -17.304481605243673 74.0935492364384913 -5.29670337332665486 -17.304481605243673 74.0935492364384913 976055379.410964012 myhost 976055379.410964012
FLASER 0 -5.33904912694534328 -17.3052425148969959 73.5360860455503342 -5.33904912694534328 -17.3052425148969959 73.5360860455503342 976055376.892222047 myhost 976055376.892222047
FLASER 0 -5.36347026877256106 -17.2911026357235791 73.2823405358108175 -5.36347026877256106 -17.2911026357235791 73.2823405358108175 976055376.348868966 myhost 976055376.348868966
FLASER 0 -5.40116815994815269 -17.2703609807640746 72.7793940503709251 -5.40116815994815269 -17.2703609807640746 72.7793940503709251 976055375.159628987 myhost 976055375.159628987
FLASER 0 -4.89622512763786677 -17.2053330627403334 72.3201105141990723 -4.89622512763786677 -17.2053330627403334 72.3201105141990723 976055371.695567012 myhost 976055371.695567012
FLASER 0 -3.91794475874291948 -17.1447301199566056 72.2340329326257233 -3.91794475874291948 -17.1447301199566056 72.2340329326257233 976055368.126947999 myhost 976055368.126947999
FLASER 0 -3.72736405470944554 -17.1658864388812979 72.2451996098511842 -3.72736405470944554 -17.1658864388812979 72.2451996098511842 976055367.270462036 myhost 976055367.270462036
FLASER 0 -2.69141350526489731 -17.1967286269289588 72.269066481957509 -2.69141350526489731 -17.1967286269289588 72.269066481957509 976055363.762545943 myhost 976055363.762545943
FLASER 0 -1.86104701961151409 -17.213961248954682 72.2183681618658682 -1.86104701961151409 -17.213961248954682 72.2183681618658682 976055360.533668041 myhost 976055360.533668041
FLASER 0 -1.5235599690733741 -17.231407809653323 72.7073386323450563 -1.5235599690733741 -17.231407809653323 72.7073386323450563 976055358.584476948 myhost 976055358.584476948
FLASER 0 -1.47179460421490327 -17.2812821055007007 73.2235392564544867 -1.47179460421490327 -17.2812821055007007 73.2235392564544867 976055355.750226021 myhost 976055355.750226021
FLASER 0 -1.34706719385453333 -16.7583150423587917 73.6733802855893032 -1.34706719385453333 -16.7583150423587917 73.6733802855893032 976055351.671645999 myhost 976055351.671645999
FLASER 0 -1.21329992170080825 -15.8923827733643677 73.9722956342578897 -1.21329992170080825 -15.8923827733643677 73.9722956342578897 976055347.506800056 myhost 976055347.506800056
FLASER 0 -1.20076794391896402 -15.8908430755533896 74.1787879716911362 -1.20076794391896402 -15.8908430755533896 74.1787879716911362 976055346.569004059 myhost 976055346.569004059
FLASER 0 -1.16057058540653979 -15.8545201366560864 74.6944494637718321 -1.16057058540653979 -15.8545201366560864 74.6944494637718321 976055344.199849963 myhost 976055344.199849963
FLASER 0 -2.05586051230872213 -15.5000223741848391 75.1012083427082331 -2.05586051230872213 -15.5000223741848391 75.1012083427082331 976055338.630270004 myhost 976055338.630270004
FLASER 0 -2.98769471458867741 -15.3457348277622891 75.3284157720924696 -2.98769471458867741 -15.3457348277622891 75.3284157720924696 976055335.421110988 myhost 976055335.421110988
FLASER 0 -3.88087914317200688 -15.4789895831234041 75.373771679097942 -3.88087914317200688 -15.4789895831234041 75.373771679097942 976055331.816817999 myhost 976055331.816817999
FLASER 0 -3.88684672274636789 -15.5181734580665669 74.8150379434439827 -3.88684672274636789 -15.5181734580665669 74.8150379434439827 976055330.353157997 myhost 976055330.353157997
FLASER 0 -3.93008792351385861 -15.5332604019708533 74.2813405385061571 -3.93008792351385861 -15.5332604019708533 74.2813405385061571 976055329.996062994 myhost 976055329.996062994
FLASER 0 -3.97335412922117648 -15.55091829731888 73.7323214464371688 -3.97335412922117648 -15.55091829731888 73.7323214464371688 976055329.975643039 myhost 976055329.975643039
FLASER 0 -4.01656684053341806 -15.5309796484525915 73.1741992019982348 -4.01656684053341806 -15.5309796484525915 73.1741992019982348 976055326.810173988 myhost 976055326.810173988
FLASER 0 -4.04874994024943113 -15.504626940849473 72.6435411779154663 -4.04874994024943113 -15.504626940849473 72.6435411779154663 976055325.731735945 myhost 976055325.731735945
FLASER 0 -3.30709782007574438 -15.5225840924671079 72.2148861293273541 -3.30709782007574438 -15.5225840924671079 72.2148861293273541 976055321.97813499 myhost 976055321.97813499
FLASER 0 -2.25569869629622266 -15.6275114358349949 72.065668503967899 -2.25569869629622266 -15.6275114358349949 72.065668503967899 976055317.827083945 myhost 976055317.827083945
FLASER 0 -2.25007853207078368 -15.6879639740792527 72.5566404538598277 -2.25007853207078368 -15.6879639740792527 72.5566404538598277 976055315.59227705 myhost 976055315.59227705
FLASER 0 -1.57184428986245228 -15.3618941815410341 72.9918874929039276 -1.57184428986245228 -15.3618941815410341 72.9918874929039276 976055309.679553032 myhost 976055309.679553032
FLASER 0 -1.49750041396008049 -15.3781073366558907 73.4961116511182979 -1.49750041396008049 -15.3781073366558907 73.4961116511182979 976055307.240937948 myhost 976055307.240937948
FLASER 0 -1.49100559607268979 -15.1265931124564297 73.9604555083214734 -1.49100559607268979 -15.1265931124564297 73.9604555083214734 976055303.320996046 myhost 976055303.320996046
FLASER 0 -1.46941108838584933 -14.0712365220296913 73.8866182606100352 -1.46941108838584933 -14.0712365220296913 73.8866182606100352 976055299.490813017 myhost 976055299.490813017
FLASER 0 -1.4803844071248522 -13.4619849166944086 73.8798220350895605 -1.4803844071248522 -13.4619849166944086 73.8798220350895605 976055297.796028018 myhost 976055297.796028018
FLASER 0 -1.6187647718390008 -12.4073563685122341 73.7584207821805933 -1.6187647718390008 -12.4073563685122341 73.7584207821805933 976055293.946954012 myhost 976055293.946954012
FLASER 0 -1.49997465814025688 -11.4594351247826651 73.8300981189405832 -1.49997465814025688 -11.4594351247826651 73.8300981189405832 976055290.159932971 myhost 976055290.159932971
FLASER 0 -1.51565552455792529 -10.4034075217962698 73.9593995193379499 -1.51565552455792529 -10.4034075217962698 73.9593995193379499 976055286.62985599 myhost 976055286.62985599
FLASER 0 -1.5730399037930809 -9.41005533793377325 73.7035754061271007 -1.5730399037930809 -9.41005533793377325 73.7035754061271007 976055280.498893023 myhost 976055280.498893023
FLASER 0 -1.4639152537583755 -8.37934923584250413 73.7642664751612358 -1.4639152537583755 -8.37934923584250413 73.7642664751612358 976055278.759865046 myhost 976055278.759865046
FLASER 0 -1.37376464919037233 -7.30617266985285063 74.1538399710345999 -1.37376464919037233 -7.30617266985285063 74.1538399710345999 976055272.878000021 myhost 976055272.878000021
FLASER 0 -1.4646790928915645 -7.04668966071291791 73.931639574011399 -1.4646790928915645 -7.04668966071291791 73.931639574011399 976055270.47024703 myhost 976055270.47024703
FLASER 0 -1.444792348902461 -6.81624295092254062 73.6388736971177025 -1.444792348902461 -6.81624295092254062 73.6388736971177025 976055266.705675006 myhost 976055266.705675006
FLASER 0 -1.33857305137803917 -5.94153195566076597 73.7367797314609277 -1.33857305137803917 -5.94153195566076597 73.7367797314609277 976055262.730543017 myhost 976055262.730543017
FLASER 0 -1.29651255345010852 -5.67122982558635425 74.0538036389871337 -1.29651255345010852 -5.67122982558635425 74.0538036389871337 976055260.37985599 myhost 976055260.37985599
FLASER 0 -1.24829853562278448 -5.58566813517518845 74.6669059347951816 -1.24829853562278448 -5.58566813517518845 74.6669059347951816 976055258.402083039 myhost 976055258.402083039
FLASER 0 -1.25650195944656118 -5.55530299918215853 75.1783315767240623 -1.25650195944656118 -5.55530299918215853 75.1783315767240623 976055256.213294983 myhost 976055256.213294983
FLASER 0 -2.02531210014947893 -5.62144294377424636 75.5894272847759794 -2.02531210014947893 -5.62144294377424636 75.5894272847759794 976055251.503144026 myhost 976055251.503144026
FLASER 0 -2.98329985050138546 -5.72381332775188056 76.0157237891657616 -2.98329985050138546 -5.72381332775188056 76.0157237891657616 976055246.770267963 myhost 976055246.770267963
FLASER 0 -3.02669874954473661 -5.69990135245024998 76.4777754954153295 -3.02669874954473661 -5.69990135245024998 76.4777754954153295 976055243.659685969 myhost 976055243.659685969
FLASER 0 -3.42622113322750721 -6.45561617825351064 76.485738560000982 -3.42622113322750721 -6.45561617825351064 76.485738560000982 976055241.777799964 myhost 976055241.777799964
FLASER 0 -3.82624929518784507 -7.33741816114987344 76.1473805210735009 -3.82624929518784507 -7.33741816114987344 76.1473805210735009 976055237.731385946 myhost 976055237.731385946
FLASER 0 -3.80530935531686998 -7.38947319968344818 75.5990610654969544 -3.80530935531686998 -7.38947319968344818 75.5990610654969544 976055235.523561954 myhost 976055235.523561954
FLASER 0 -3.82711086832578351 -7.44001202741315026 75.0759747599011149 -3.82711086832578351 -7.44001202741315026 75.0759747599011149 976055234.230065942 myhost 976055234.230065942
FLASER 0 -3.84529331591651902 -7.49146120215337064 74.5614768894708106 -3.84529331591651902 -7.49146120215337064 74.5614768894708106 976055233.793382049 myhost 976055233.793382049
FLASER 0 -3.90108586235252508 -7.53568009339947054 74.0286819266047189 -3.90108586235252508 -7.53568009339947054 74.0286819266047189 976055231.693040967 myhost 976055231.693040967
FLASER 0 -3.95237539368317758 -7.53403680871231263 73.4937251812994248 -3.95237539368317758 -7.53403680871231263 73.4937251812994248 976055230.492491961 myhost 976055230.492491961
FLASER 0 -3.51611370197346851 -6.99070742964681369 73.2193521296537 -3.51611370197346851 -6.99070742964681369 73.2193521296537 976055225.895246029 myhost 976055225.895246029
FLASER 0 -3.44102000593834445 -6.75968910298648407 73.6667170368814226 -3.44102000593834445 -6.75968910298648407 73.6667170368814226 976055222.709066033 myhost 976055222.709066033
FLASER 0 -3.29055620471221744 -5.82805260014864235 73.2778557892935254 -3.29055620471221744 -5.82805260014864235 73.2778557892935254 976055218.394152999 myhost 976055218.394152999
FLASER 0 -3.32697565308889853 -5.80940883435987221 72.7663408346051028 -3.32697565308889853 -5.80940883435987221 72.7663408346051028 976055217.727133036 myhost 976055217.727133036
FLASER 0 -3.01414535726204225 -5.72083493206098126 72.3579746212818264 -3.01414535726204225 -5.72083493206098126 72.3579746212818264 976055214.308895946 myhost 976055214.308895946
FLASER 0 -2.19438097413069855 -5.67186332665249981 72.4087046456847361 -2.19438097413069855 -5.67186332665249981 72.4087046456847361 976055211.113669038 myhost 976055211.113669038
FLASER 0 -2.08804942878381805 -5.67205036250317995 72.9493834215552255 -2.08804942878381805 -5.67205036250317995 72.9493834215552255 976055209.592787027 myhost 976055209.592787027
FLASER 0 -1.32330964256864436 -5.20737082647954352 73.0789574936657971 -1.32330964256864436 -5.20737082647954352 73.0789574936657971 976055205.807834983 myhost 976055205.807834983
FLASER 0 -1.28767283990887349 -5.19103893234935754 73.5015478424212318 -1.28767283990887349 -5.19103893234935754 73.5015478424212318 976055202.558972001 myhost 976055202.558972001
FLASER 0 -1.30673124239602823 -5.19519202907404321 73.241499321606014 -1.30673124239602823 -5.19519202907404321 73.241499321606014 976055198.978778005 myhost 976055198.978778005
FLASER 0 -1.33305974638572899 -5.17839176477211183 72.8806556604516516 -1.33305974638572899 -5.17839176477211183 72.8806556604516516 976055198.109827042 myhost 976055198.109827042
FLASER 0 -1.33144294975687871 -5.14005068329935355 72.3162805419112829 -1.33144294975687871 -5.14005068329935355 72.3162805419112829 976055197.51601696 myhost 976055197.51601696
FLASER 0 -0.856132739655563357 -5.0751337997107635 72.3747438875076057 -0.856132739655563357 -5.0751337997107635 72.3747438875076057 976055193.748916984 myhost 976055193.748916984
FLASER 0 0.0997384687312562607 -5.02560136922988043 72.4397373659965638 0.0997384687312562607 -5.02560136922988043 72.4397373659965638 976055189.734315991 myhost 976055189.734315991
FLASER 0 0.12296471107671629 -5.08515609715492101 72.9494531008946296 0.12296471107671629 -5.08515609715492101 72.9494531008946296 976055189.297626972 myhost 976055189.297626972
FLASER 0 0.138954988436051752 -5.11695671975056676 73.3114019202240144 0.138954988436051752 -5.11695671975056676 73.3114019202240144 976055186.573078036 myhost 976055186.573078036
FLASER 0 0.173381309054608801 -4.84720784540128946 73.7802153929538633 0.173381309054608801 -4.84720784540128946 73.7802153929538633 976055183.541175961 myhost 976055183.541175961
FLASER 0 0.27993151800676197 -3.78115946224779709 73.7807270074854529 0.27993151800676197 -3.78115946224779709 73.7807270074854529 976055179.727525949 myhost 976055179.727525949
FLASER 0 0.247143496352426634 -3.48285429552365766 73.355625989558547 0.247143496352426634 -3.48285429552365766 73.355625989558547 976055177.782292008 myhost 976055177.782292008
FLASER 0 0.206255109939518455 -3.50300511346615773 72.8323145493601771 0.206255109939518455 -3.50300511346615773 72.8323145493601771 976055175.898149014 myhost 976055175.898149014
FLASER 0 0.162895821838003357 -3.44246341094915564 72.284748134965227 0.162895821838003357 -3.44246341094915564 72.284748134965227 976055174.802845955 myhost 976055174.802845955
FLASER 0 0.160016630061403764 -3.42360636751782499 71.8424675626476983 0.160016630061403764 -3.42360636751782499 71.8424675626476983 976055173.916376948 myhost 976055173.916376948
FLASER 0 0.184552952327490694 -3.36518698654181758 71.2723262176576924 0.184552952327490694 -3.36518698654181758 71.2723262176576924 976055173.910642982 myhost 976055173.910642982
FLASER 0 0.230477883355381274 -3.33342920694618927 70.7712801317660478 0.230477883355381274 -3.33342920694618927 70.7712801317660478 976055171.426316023 myhost 976055171.426316023
FLASER 0 0.284527945042447106 -3.34022318641853033 70.1754503654857444 0.284527945042447106 -3.34022318641853033 70.1754503654857444 976055170.165424943 myhost 976055170.165424943
FLASER 0 0.337951830787981466 -3.38472879620742351 69.6229802691885737 0.337951830787981466 -3.38472879620742351 69.6229802691885737 976055170.160078049 myhost 976055170.160078049
FLASER 0 0.240883155673052962 -3.42856663256215244 69.1465681695624994 0.240883155673052962 -3.42856663256215244 69.1465681695624994 976055166.74764502 myhost 976055166.74764502
FLASER 0 -0.800635158944090874 -3.47422297204636399 69.1248966958235798 -0.800635158944090874 -3.47422297204636399 69.1248966958235798 976055162.866490006 myhost 976055162.866490006
FLASER 0 -1.83346877305706824 -3.55071969852821701 69.1601379934390792 -1.83346877305706824 -3.55071969852821701 69.1601379934390792 976055159.353180051 myhost 976055159.353180051
FLASER 0 -2.87305719907759372 -3.52326535121021722 69.1334421068023772 -2.87305719907759372 -3.52326535121021722 69.1334421068023772 976055155.968999028 myhost 976055155.968999028
FLASER 0 -2.90989764521134209 -3.51264072819280582 69.6267069600088035 -2.90989764521134209 -3.51264072819280582 69.6267069600088035 976055154.460942984 myhost 976055154.460942984
FLASER 0 -2.93972774650966562 -3.46803063161930236 70.175302117786643 -2.93972774650966562 -3.46803063161930236 70.175302117786643 976055151.909319997 myhost 976055151.909319997
FLASER 0 -2.94605121716342255 -3.42963491698620837 70.6312922058446304 -2.94605121716342255 -3.42963491698620837 70.6312922058446304 976055150.650611997 myhost 976055150.650611997
FLASER 0 -2.94860082972925319 -3.42603129347986268 70.42317502626112 -2.94860082972925319 -3.42603129347986268 70.42317502626112 976055147.667597055 myhost 976055147.667597055
FLASER 0 -2.90683250896539036 -3.45435735311921777 69.857570917247557 -2.90683250896539036 -3.45435735311921777 69.857570917247557 976055146.829776049 myhost 976055146.829776049
FLASER 0 -2.88275985792422951 -3.5103811799186726 69.2955009087932865 -2.88275985792422951 -3.5103811799186726 69.2955009087932865 976055146.80401504 myhost 976055146.80401504
FLASER 0 -2.90903878915306757 -3.53831588445482748 68.7784772468879311 -2.90903878915306757 -3.53831588445482748 68.7784772468879311 976055144.137766957 myhost 976055144.137766957
FLASER 0 -2.89560620513333822 -3.59438177178119389 68.1239886418740213 -2.89560620513333822 -3.59438177178119389 68.1239886418740213 976055142.835723042 myhost 976055142.835723042
FLASER 0 -2.95314822483661832 -3.59954048355237832 67.6005837198228647 -2.95314822483661832 -3.59954048355237832 67.6005837198228647 976055142.830129027 myhost 976055142.830129027
FLASER 0 -3.04880497040987253 -3.58690280486042301 67.0416411745570997 -3.04880497040987253 -3.58690280486042301 67.0416411745570997 976055140.357509017 myhost 976055140.357509017
FLASER 0 -3.06183781643009034 -3.56699788088456859 66.7970290811699812 -3.06183781643009034 -3.56699788088456859 66.7970290811699812 976055139.865947008 myhost 976055139.865947008
FLASER 0 -3.09087494340331981 -3.50623610871655078 65.9420183710906826 -3.09087494340331981 -3.50623610871655078 65.9420183710906826 976055139.766499996 myhost 976055139.766499996
FLASER 0 -3.08143837805270415 -3.55513500514885505 66.3957517468145255 -3.08143837805270415 -3.55513500514885505 66.3957517468145255 976055139.143399954 myhost 976055139.143399954
FLASER 0 -2.99031613472038105 -3.51899955921310026 65.9174975158906449 -2.99031613472038105 -3.51899955921310026 65.9174975158906449 976055136.643805027 myhost 976055136.643805027
FLASER 0 -2.02340051397009413 -3.53873816061843183 65.9998924676793592 -2.02340051397009413 -3.53873816061843183 65.9998924676793592 976055133.395292044 myhost 976055133.395292044
FLASER 0 -1.45789400478146436 -3.59760348192181922 66.048285052665392 -1.45789400478146436 -3.59760348192181922 66.048285052665392 976055131.328732967 myhost 976055131.328732967
FLASER 0 -1.44865638257118645 -3.6319735704822409 66.5603622056004838 -1.44865638257118645 -3.6319735704822409 66.5603622056004838 976055128.364465952 myhost 976055128.364465952
FLASER 0 -1.42010328955459175 -3.65373192764844346 67.0719097930726491 -1.42010328955459175 -3.65373192764844346 67.0719097930726491 976055127.468508005 myhost 976055127.468508005
FLASER 0 -1.3036169368266568 -3.01754516328395361 67.488588590017244 -1.3036169368266568 -3.01754516328395361 67.488588590017244 976055122.150220037 myhost 976055122.150220037
FLASER 0 -1.3378078784296159 -2.49078414638508683 67.5238805067503733 -1.3378078784296159 -2.49078414638508683 67.5238805067503733 976055120.190618992 myhost 976055120.190618992
FLASER 0 -1.33607134338862044 -1.3409474393962586 67.5507759133299288 -1.33607134338862044 -1.3409474393962586 67.5507759133299288 976055116.651833057 myhost 976055116.651833057
FLASER 0 -1.33867151212199076 -0.431730777139581356 67.5955982638181609 -1.33867151212199076 -0.431730777139581356 67.5955982638181609 976055112.923218012 myhost 976055112.923218012
FLASER 0 -1.4271405460351092 -0.336886239200565596 67.0627422081588804 -1.4271405460351092 -0.336886239200565596 67.0627422081588804 976055110.740797043 myhost 976055110.740797043
FLASER 0 -1.47480552540234977 -0.31658513142891781 66.512756186911389 -1.47480552540234977 -0.31658513142891781 66.512756186911389 976055109.350540042 myhost 976055109.350540042
FLASER 0 -0.961211974838345529 -0.177479415878928237 66.1803193555715552 -0.961211974838345529 -0.177479415878928237 66.1803193555715552 976055105.140115976 myhost 976055105.140115976
FLASER 0 0.0719826610468748823 -0.0452457391667163353 66.0510791511234459 0.0719826610468748823 -0.0452457391667163353 66.0510791511234459 976055097.34010005 myhost 976055097.34010005
FLASER 0 1.05368072846114358 0.0186394225092028909 66.057232144969845 1.05368072846114358 0.0186394225092028909 66.057232144969845 976055094.853000045 myhost 976055094.853000045
FLASER 0 1.59855534984925129 0.0779506402257749004 66.0554354340339671 1.59855534984925129 0.0779506402257749004 66.0554354340339671 976055092.617745042 myhost 976055092.617745042
FLASER 0 2.60499631956464306 0.124832525143806744 66.1202110044948057 2.60499631956464306 0.124832525143806744 66.1202110044948057 976055088.979411006 myhost 976055088.979411006
FLASER 0 3.23238934315269733 0.18164760327822782 66.0536024615451112 3.23238934315269733 0.18164760327822782 66.0536024615451112 976055085.644927025 myhost 976055085.644927025
FLASER 0 4.13935143399096805 0.245121165054177303 65.9881011544632941 4.13935143399096805 0.245121165054177303 65.9881011544632941 976055082.309628963 myhost 976055082.309628963
FLASER 0 5.19803317881468452 0.309254037618808875 66.1112789274278043 5.19803317881468452 0.309254037618808875 66.1112789274278043 976055078.620252967 myhost 976055078.620252967
FLASER 0 6.08709755228588723 0.337292164924715199 66.0094816427437792 6.08709755228588723 0.337292164924715199 66.0094816427437792 976055075.474328995 myhost 976055075.474328995
FLASER 0 6.63896983702802057 0.36210953397958362 66.0366877734330728 6.63896983702802057 0.36210953397958362 66.0366877734330728 976055074.97468996 myhost 976055074.97468996
FLASER 0 6.39074331902357073 0.326956150742144569 66.0826494991908504 6.39074331902357073 0.326956150742144569 66.0826494991908504 976055074.102228999 myhost 976055074.102228999
FLASER 0 7.29457760799810107 0.348258244546177931 65.8407360183501993 7.29457760799810107 0.348258244546177931 65.8407360183501993 976055070.368702054 myhost 976055070.368702054
FLASER 0 7.90561784919737853 -0.00815523321721837308 65.3112273593968382 7.90561784919737853 -0.00815523321721837308 65.3112273593968382 976055066.465705037 myhost 976055066.465705037
FLASER 0 8.2918799230809519 -0.368757060405686288 65.23752491728699 8.2918799230809519 -0.368757060405686288 65.23752491728699 976055063.547973037 myhost 976055063.547973037
FLASER 0 8.92226268436090564 -1.00998161509143403 65.1322232476042586 8.92226268436090564 -1.00998161509143403 65.1322232476042586 976055060.145365 myhost 976055060.145365
FLASER 0 9.5451562166578281 -1.73668287683479039 65.2691367884686429 9.5451562166578281 -1.73668287683479039 65.2691367884686429 976055056.656787038 myhost 976055056.656787038
FLASER 0 10.2791551416289426 -2.46857102522475635 65.4041582710083986 10.2791551416289426 -2.46857102522475635 65.4041582710083986 976055052.935650945 myhost 976055052.935650945
FLASER 0 11.0979095359763047 -2.9371083040566508 65.0440590918552317 11.0979095359763047 -2.9371083040566508 65.0440590918552317 976055048.853126049 myhost 976055048.853126049
FLASER 0 11.2906506815457739 -3.82423460941131843 64.6262277745766198 11.2906506815457739 -3.82423460941131843 64.6262277745766198 976055043.689978004 myhost 976055043.689978004
FLASER 0 11.4237947722477688 -4.44654115299799457 64.6224269127926902 11.4237947722477688 -4.44654115299799457 64.6224269127926902 976055042.32001996 myhost 976055042.32001996
FLASER 0 11.592920243679826 -5.42178857296956718 64.5775502875982994 11.592920243679826 -5.42178857296956718 64.5775502875982994 976055037.930626035 myhost 976055037.930626035
FLASER 0 11.7569660982559974 -6.46950629482977746 64.5589736160303573 11.7569660982559974 -6.46950629482977746 64.5589736160303573 976055033.765939951 myhost 976055033.765939951
FLASER 0 11.9055357708098164 -7.4514813199373604 64.5662531652047704 11.9055357708098164 -7.4514813199373604 64.5662531652047704 976055030.156402946 myhost 976055030.156402946
FLASER 0 12.0105568492311825 -8.35914237779268277 64.55623373121621 12.0105568492311825 -8.35914237779268277 64.55623373121621 976055026.677852035 myhost 976055026.677852035
FLASER 0 12.1827144123013333 -9.44459632224369194 64.556494035879652 12.1827144123013333 -9.44459632224369194 64.556494035879652 976055023.28066802 myhost 976055023.28066802
FLASER 0 12.2817841489170014 -10.1602920685169558 64.5848217703162817 12.2817841489170014 -10.1602920685169558 64.5848217703162817 976055021.545390964 myhost 976055021.545390964
FLASER 0 12.3564300903657109 -10.7082765275097902 64.5214923394500346 12.3564300903657109 -10.7082765275097902 64.5214923394500346 976055018.224974036 myhost 976055018.224974036
FLASER 0 12.4402299663247664 -11.7175526853425236 64.4556580861316775 12.4402299663247664 -11.7175526853425236 64.4556580861316775 976055014.869541049 myhost 976055014.869541049
FLASER 0 12.491878999510174 -12.7837220039510857 64.436701119479963 12.491878999510174 -12.7837220039510857 64.436701119479963 976055011.925019979 myhost 976055011.925019979
FLASER 0 12.4918459868173954 -13.387991474938131 64.4239580813273989 12.4918459868173954 -13.387991474938131 64.4239580813273989 976055010.750030041 myhost 976055010.750030041
FLASER 0 12.4920440970119646 -13.4807081102809629 64.4236183349508593 12.4920440970119646 -13.4807081102809629 64.4236183349508593 976055008.571238041 myhost 976055008.571238041
FLASER 0 12.4412828590190649 -14.4837548819270143 64.3777927646667223 12.4412828590190649 -14.4837548819270143 64.3777927646667223 976055005.912690043 myhost 976055005.912690043
FLASER 0 12.4126777999828324 -15.3547687298335429 64.3362017576865384 12.4126777999828324 -15.3547687298335429 64.3362017576865384 976055001.885213017 myhost 976055001.885213017
FLASER 0 12.3514197601559044 -16.4161800469374519 64.3739091650866158 12.3514197601559044 -16.4161800469374519 64.3739091650866158 976054998.251942039 myhost 976054998.251942039
FLASER 0 12.2804692717841544 -17.3791659104148692 64.3137075259406998 12.2804692717841544 -17.3791659104148692 64.3137075259406998 976054994.792529941 myhost 976054994.792529941
FLASER 0 12.200439202425807 -18.3023544100719171 64.5883852458813834 12.200439202425807 -18.3023544100719171 64.5883852458813834 976054991.270521045 myhost 976054991.270521045
FLASER 0 12.3429322379101833 -19.1874503320541088 64.5809075862355115 12.3429322379101833 -19.1874503320541088 64.5809075862355115 976054983.195978999 myhost 976054983.195978999
FLASER 0 12.4157471905238648 -19.2062407334178147 63.6991923567854172 12.4157471905238648 -19.2062407334178147 63.6991923567854172 976054982.965229988 myhost 976054982.965229988
FLASER 0 12.3906891932249117 -19.1761480554777286 64.0649017149327165 12.3906891932249117 -19.1761480554777286 64.0649017149327165 976054982.100491047 myhost 976054982.100491047
FLASER 0 12.4426870877774327 -19.2374925668012935 63.3347237028741006 12.4426870877774327 -19.2374925668012935 63.3347237028741006 976054980.387295961 myhost 976054980.387295961
FLASER 0 12.4622958849089009 -19.2774196488062799 63.1554034546995027 12.4622958849089009 -19.2774196488062799 63.1554034546995027 976054979.721052051 myhost 976054979.721052051
FLASER 0 11.9201500488259668 -19.3069844011686342 62.8254251206222065 11.9201500488259668 -19.3069844011686342 62.8254251206222065 976054975.823194981 myhost 976054975.823194981
FLASER 0 10.8910424355465985 -19.3160154810061506 62.907987425299936 10.8910424355465985 -19.3160154810061506 62.907987425299936 976054972.462164998 myhost 976054972.462164998
FLASER 0 10.0047778481390228 -19.3179334348320921 62.745985779941762 10.0047778481390228 -19.3179334348320921 62.745985779941762 976054970.136680961 myhost 976054970.136680961
FLASER 0 9.01224595312169008 -19.1870695482565843 62.6621058091929655 9.01224595312169008 -19.1870695482565843 62.6621058091929655 976054966.272647023 myhost 976054966.272647023
FLASER 0 8.7013654006353196 -19.1430648053620232 62.7129964389645167 8.7013654006353196 -19.1430648053620232 62.7129964389645167 976054964.304126024 myhost 976054964.304126024
FLASER 0 7.70825918400904353 -18.9634788244654686 62.6773229152573919 7.70825918400904353 -18.9634788244654686 62.6773229152573919 976054960.978096008 myhost 976054960.978096008
FLASER 0 6.76608631109045788 -18.8320031827673944 62.7561069241949099 6.76608631109045788 -18.8320031827673944 62.7561069241949099 976054958.722529054 myhost 976054958.722529054
FLASER 0 5.75925062954492883 -18.7696392146716491 62.8219930193804288 5.75925062954492883 -18.7696392146716491 62.8219930193804288 976054954.885220051 myhost 976054954.885220051
FLASER 0 4.7381624632261703 -18.8507159662426993 62.9637011303092251 4.7381624632261703 -18.8507159662426993 62.9637011303092251 976054950.857427955 myhost 976054950.857427955
FLASER 0 4.22249114481673526 -18.8894350040354979 62.9042663209522175 4.22249114481673526 -18.8894350040354979 62.9042663209522175 976054948.22379601 myhost 976054948.22379601
FLASER 0 3.95250165563093692 -18.8797483660378909 62.6506656885504825 3.95250165563093692 -18.8797483660378909 62.6506656885504825 976054947.167870998 myhost 976054947.167870998
FLASER 0 2.68378959617326895 -18.6944550260757829 62.9666599726194391 2.68378959617326895 -18.6944550260757829 62.9666599726194391 976054943.44757998 myhost 976054943.44757998
FLASER 0 2.07386061210796013 -18.7726146993942216 63.0238474596452107 2.07386061210796013 -18.7726146993942216 63.0238474596452107 976054940.717440963 myhost 976054940.717440963
FLASER 0 1.06706355379552331 -19.0064670027032712 63.1061506229574292 1.06706355379552331 -19.0064670027032712 63.1061506229574292 976054937.271082044 myhost 976054937.271082044
FLASER 0 0.783322280946694982 -19.1132508690843146 62.6695393437774868 0.783322280946694982 -19.1132508690843146 62.6695393437774868 976054933.844755054 myhost 976054933.844755054
FLASER 0 0.219554960398411964 -19.0543861873357088 62.7797333258201817 0.219554960398411964 -19.0543861873357088 62.7797333258201817 976054931.740856051 myhost 976054931.740856051
FLASER 0 -0.781548632053298942 -19.0144958902113004 62.7357635764259953 -0.781548632053298942 -19.0144958902113004 62.7357635764259953 976054928.296638966 myhost 976054928.296638966
FLASER 0 -1.80993040900745039 -18.8875541696795821 62.7437342289589211 -1.80993040900745039 -18.8875541696795821 62.7437342289589211 976054925.946200013 myhost 976054925.946200013
FLASER 0 -2.11434592807595845 -18.8609066354253407 62.7679909891934358 -2.11434592807595845 -18.8609066354253407 62.7679909891934358 976054923.119822979 myhost 976054923.119822979
FLASER 0 -3.1045420748721031 -18.8286707794505119 62.8722479804131211 -3.1045420748721031 -18.8286707794505119 62.8722479804131211 976054919.633813024 myhost 976054919.633813024
FLASER 0 -4.11066211551227134 -18.8405974738697104 63.0013493350180411 -4.11066211551227134 -18.8405974738697104 63.0013493350180411 976054916.236240983 myhost 976054916.236240983
FLASER 0 -4.70592572051603231 -18.9514724627275939 62.9581945730819683 -4.70592572051603231 -18.9514724627275939 62.9581945730819683 976054914.186699986 myhost 976054914.186699986
FLASER 0 -4.72272022730085883 -18.9929461288013712 62.4538975461901273 -4.72272022730085883 -18.9929461288013712 62.4538975461901273 976054912.654194951 myhost 976054912.654194951
FLASER 0 -4.76633893548310095 -19.0257231819096617 61.8655609397529744 -4.76633893548310095 -19.0257231819096617 61.8655609397529744 976054911.273964047 myhost 976054911.273964047
FLASER 0 -4.82764504100696268 -18.7935846521319299 61.3465601989069569 -4.82764504100696268 -18.7935846521319299 61.3465601989069569 976054908.157253981 myhost 976054908.157253981
FLASER 0 -4.91732504019554373 -17.8046613891960774 61.42159755039755 -4.91732504019554373 -17.8046613891960774 61.42159755039755 976054904.772310972 myhost 976054904.772310972
FLASER 0 -5.1080240466609137 -16.8402597134824425 61.5131217483838952 -5.1080240466609137 -16.8402597134824425 61.5131217483838952 976054900.841032982 myhost 976054900.841032982
FLASER 0 -5.44454205940685565 -15.9000678711482486 61.6042458208469128 -5.44454205940685565 -15.9000678711482486 61.6042458208469128 976054898.522992015 myhost 976054898.522992015
FLASER 0 -5.78553575780683627 -14.98746675043731 61.6146167254068544 -5.78553575780683627 -14.98746675043731 61.6146167254068544 976054894.745792985 myhost 976054894.745792985
FLASER 0 -6.13447379624325428 -14.1045432380790423 61.6296436942191264 -6.13447379624325428 -14.1045432380790423 61.6296436942191264 976054891.428750038 myhost 976054891.428750038
FLASER 0 -6.18731442011491772 -14.0072311760348711 61.596590137146336 -6.18731442011491772 -14.0072311760348711 61.596590137146336 976054889.620823979 myhost 976054889.620823979
FLASER 0 -6.22597181452624682 -13.9704043781506027 61.1129014394538288 -6.22597181452624682 -13.9704043781506027 61.1129014394538288 976054887.725877047 myhost 976054887.725877047
FLASER 0 -6.09059082345092673 -12.9676464938468605 61.1643514459434954 -6.09059082345092673 -12.9676464938468605 61.1643514459434954 976054884.584965944 myhost 976054884.584965944
FLASER 0 -6.01675924843505339 -11.9854885839791905 61.2266564586202264 -6.01675924843505339 -11.9854885839791905 61.2266564586202264 976054881.393949032 myhost 976054881.393949032
FLASER 0 -5.99586345220666317 -11.1590593460736081 61.258181717283847 -5.99586345220666317 -11.1590593460736081 61.258181717283847 976054878.248950005 myhost 976054878.248950005
FLASER 0 -6.01599269289812977 -10.1712594045843367 61.2982259391606874 -6.01599269289812977 -10.1712594045843367 61.2982259391606874 976054873.458250999 myhost 976054873.458250999
FLASER 0 -6.23362622709541814 -9.25077477597941744 61.5550863787425087 -6.23362622709541814 -9.25077477597941744 61.5550863787425087 976054869.538156033 myhost 976054869.538156033
FLASER 0 -6.23728335612300366 -9.02185568040380659 61.1102826688732677 -6.23728335612300366 -9.02185568040380659 61.1102826688732677 976054867.813155055 myhost 976054867.813155055
FLASER 0 -6.153119605155843 -8.260125274172605 61.1725607651099637 -6.153119605155843 -8.260125274172605 61.1725607651099637 976054864.69551003 myhost 976054864.69551003
FLASER 0 -6.0607297007841332 -7.2742971220908581 61.177083576490304 -6.0607297007841332 -7.2742971220908581 61.177083576490304 976054861.471557021 myhost 976054861.471557021
FLASER 0 -5.91897134130416358 -6.37512323416452364 61.1665968297487552 -5.91897134130416358 -6.37512323416452364 61.1665968297487552 976054856.720473051 myhost 976054856.720473051
FLASER 0 -6.04448290837549962 -5.69096918013429498 61.4476103223771659 -6.04448290837549962 -5.69096918013429498 61.4476103223771659 976054852.732033968 myhost 976054852.732033968
FLASER 0 -6.19871650428667653 -4.96592173056526498 61.4591364662014996 -6.19871650428667653 -4.96592173056526498 61.4591364662014996 976054851.265519977 myhost 976054851.265519977
FLASER 0 -6.2185876551800936 -4.87937662634498626 61.4603017299493004 -6.2185876551800936 -4.87937662634498626 61.4603017299493004 976054849.601546049 myhost 976054849.601546049
FLASER 0 -6.38703659648791344 -3.77021937768726234 61.3778610487245402 -6.38703659648791344 -3.77021937768726234 61.3778610487245402 976054846.130668044 myhost 976054846.130668044
FLASER 0 -6.457051841365546 -3.45491248755737557 61.0286784036759116 -6.457051841365546 -3.45491248755737557 61.0286784036759116 976054843.974800944 myhost 976054843.974800944
FLASER 0 -6.19903738916090052 -3.01477316521824479 60.6606423372616845 -6.19903738916090052 -3.01477316521824479 60.6606423372616845 976054840.434272051 myhost 976054840.434272051
FLASER 0 -5.85480265042856285 -2.53244775132507494 60.6399955214233728 -5.85480265042856285 -2.53244775132507494 60.6399955214233728 976054837.685853958 myhost 976054837.685853958
FLASER 0 -5.31277149942105709 -1.65608335952709851 60.7006122030277666 -5.31277149942105709 -1.65608335952709851 60.7006122030277666 976054834.162400007 myhost 976054834.162400007
FLASER 0 -4.84040896100299811 -0.813759773057432412 60.7557143267707929 -4.84040896100299811 -0.813759773057432412 60.7557143267707929 976054830.380720019 myhost 976054830.380720019
FLASER 0 -4.45498113696049902 -0.0727961663039975448 60.7083847381864175 -4.45498113696049902 -0.0727961663039975448 60.7083847381864175 976054827.427181005 myhost 976054827.427181005
FLASER 0 -4.47502126834388125 -0.0328121283922515328 60.1169782542357609 -4.47502126834388125 -0.0328121283922515328 60.1169782542357609 976054825.774587035 myhost 976054825.774587035
FLASER 0 -3.8867287575224938 0.144740367828631811 59.7261972201154236 -3.8867287575224938 0.144740367828631811 59.7261972201154236 976054822.253613949 myhost 976054822.253613949
FLASER 0 -2.94732271026903492 0.00904650351401230582 59.3065923463707492 -2.94732271026903492 0.00904650351401230582 59.3065923463707492 976054818.412994027 myhost 976054818.412994027
FLASER 0 -2.04388109645244276 -0.368228763644666779 59.3292641776500247 -2.04388109645244276 -0.368228763644666779 59.3292641776500247 976054814.996695995 myhost 976054814.996695995
FLASER 0 -1.3106320824854214 -0.551673105203565051 58.9011864256219511 -1.3106320824854214 -0.551673105203565051 58.9011864256219511 976054810.954632044 myhost 976054810.954632044
FLASER 0 -1.24908162758653485 -0.538421911154984723 58.3830163484726512 -1.24908162758653485 -0.538421911154984723 58.3830163484726512 976054809.582697988 myhost 976054809.582697988
FLASER 0 -1.1681554131651215 -0.541585032314382486 57.842899384200642 -1.1681554131651215 -0.541585032314382486 57.842899384200642 976054808.431081057 myhost 976054808.431081057
FLASER 0 -1.25199263367533886 -0.579344300037485604 57.2309663161952074 -1.25199263367533886 -0.579344300037485604 57.2309663161952074 976054807.245179057 myhost 976054807.245179057
FLASER 0 -1.22002557183657845 -0.632996936599885873 56.6860269278658322 -1.22002557183657845 -0.632996936599885873 56.6860269278658322 976054805.851264 myhost 976054805.851264
FLASER 0 -1.24448779162718859 -0.694222618159647475 56.1678838591750065 -1.24448779162718859 -0.694222618159647475 56.1678838591750065 976054804.671064019 myhost 976054804.671064019
FLASER 0 -1.26323979112964113 -0.701673721335180467 55.5984191907078866 -1.26323979112964113 -0.701673721335180467 55.5984191907078866 976054803.48151803 myhost 976054803.48151803
FLASER 0 -1.32386362100788224 -0.728041516082289397 55.0692364451942353 -1.32386362100788224 -0.728041516082289397 55.0692364451942353 976054803.218426943 myhost 976054803.218426943
FLASER 0 -1.22471741571755333 -0.132485706066314907 54.7849507899711909 -1.22471741571755333 -0.132485706066314907 54.7849507899711909 976054797.430328965 myhost 976054797.430328965
FLASER 0 -1.14356826445940407 0.821458638084801018 55.1403208052184937 -1.14356826445940407 0.821458638084801018 55.1403208052184937 976054794.100757003 myhost 976054794.100757003
FLASER 0 -1.31344668884546389 1.57363479778172688 55.2944579536292196 -1.31344668884546389 1.57363479778172688 55.2944579536292196 976054788.693269968 myhost 976054788.693269968
FLASER 0 -1.41090877893528455 2.09032415973216779 54.8341159068405091 -1.41090877893528455 2.09032415973216779 54.8341159068405091 976054785.624017954 myhost 976054785.624017954
FLASER 0 -1.3217528052516061 2.98117030067676225 54.9083583592644615 -1.3217528052516061 2.98117030067676225 54.9083583592644615 976054782.206048012 myhost 976054782.206048012
FLASER 0 -1.24815882962291846 3.11948785256530181 55.3735951942275548 -1.24815882962291846 3.11948785256530181 55.3735951942275548 976054779.61056006 myhost 976054779.61056006
FLASER 0 -1.21410766380038138 3.16897367015933629 55.8917348901067896 -1.21410766380038138 3.16897367015933629 55.8917348901067896 976054778.401016951 myhost 976054778.401016951
FLASER 0 -1.22894720149831493 3.22678479029213072 56.4334539118396421 -1.22894720149831493 3.22678479029213072 56.4334539118396421 976054775.608937979 myhost 976054775.608937979
FLASER 0 -1.21464990145122154 3.20855070845769497 56.6666311733320285 -1.21464990145122154 3.20855070845769497 56.6666311733320285 976054773.719692945 myhost 976054773.719692945
FLASER 0 -1.23321711977347581 3.14761019036522605 56.1512471382803682 -1.23321711977347581 3.14761019036522605 56.1512471382803682 976054772.462991953 myhost 976054772.462991953
FLASER 0 -1.26770429537300666 3.09903365229997707 55.5899937878915438 -1.26770429537300666 3.09903365229997707 55.5899937878915438 976054771.245118976 myhost 976054771.245118976
FLASER 0 -1.35910796277779444 3.09593110795381987 55.0705385522230131 -1.35910796277779444 3.09593110795381987 55.0705385522230131 976054770.799499989 myhost 976054770.799499989
FLASER 0 -1.36713605649983072 3.11330286923695354 54.5090827099587898 -1.36713605649983072 3.11330286923695354 54.5090827099587898 976054768.809118986 myhost 976054768.809118986
FLASER 0 -1.40454758346969166 3.21500423942248315 53.9757834694917733 -1.40454758346969166 3.21500423942248315 53.9757834694917733 976054767.650089025 myhost 976054767.650089025
FLASER 0 -1.4221439204319215 3.25601168082780257 53.4672739150479472 -1.4221439204319215 3.25601168082780257 53.4672739150479472 976054766.407819033 myhost 976054766.407819033
FLASER 0 -1.41092213978230863 3.28404735365507738 52.8953497201013789 -1.41092213978230863 3.28404735365507738 52.8953497201013789 976054765.207963943 myhost 976054765.207963943
FLASER 0 -1.39617068624391738 3.32962532117999022 52.3794763832616397 -1.39617068624391738 3.32962532117999022 52.3794763832616397 976054764.324916959 myhost 976054764.324916959
FLASER 0 -1.30348384430952757 2.81564344538133504 51.8884911723193483 -1.30348384430952757 2.81564344538133504 51.8884911723193483 976054761.336140037 myhost 976054761.336140037
FLASER 0 -1.28712032545641897 2.08773993921914869 51.860121539651729 -1.28712032545641897 2.08773993921914869 51.860121539651729 976054757.583170056 myhost 976054757.583170056
FLASER 0 -1.20423443399031171 1.08380704194990107 51.8737051896852037 -1.20423443399031171 1.08380704194990107 51.8737051896852037 976054754.286677957 myhost 976054754.286677957
FLASER 0 -1.16224502402084662 0.117053083215053672 51.5843538999632258 -1.16224502402084662 0.117053083215053672 51.5843538999632258 976054750.709782958 myhost 976054750.709782958
FLASER 0 -1.07068688363723585 0.0752057684516933694 51.0745824783903402 -1.07068688363723585 0.0752057684516933694 51.0745824783903402 976054748.924438953 myhost 976054748.924438953
FLASER 0 -1.07943894129363471 0.0398956808802615887 50.5936647958109518 -1.07943894129363471 0.0398956808802615887 50.5936647958109518 976054747.426018953 myhost 976054747.426018953
FLASER 0 -1.29961700844199823 0.0211152040998633349 50.1904562545577448 -1.29961700844199823 0.0211152040998633349 50.1904562545577448 976054745.554749966 myhost 976054745.554749966
FLASER 0 -2.35163176687301601 0.0935148728128868401 50.231050956037393 -2.35163176687301601 0.0935148728128868401 50.231050956037393 976054741.513214946 myhost 976054741.513214946
FLASER 0 -3.11801755173471706 0.0756962238248489322 50.2466269849530534 -3.11801755173471706 0.0756962238248489322 50.2466269849530534 976054738.624726057 myhost 976054738.624726057
FLASER 0 -3.95007599757822359 0.0241959013990434742 50.2977150037524297 -3.95007599757822359 0.0241959013990434742 50.2977150037524297 976054735.779696941 myhost 976054735.779696941
FLASER 0 -4.59759381456175831 0.0149967416732412605 50.2695202509663588 -4.59759381456175831 0.0149967416732412605 50.2695202509663588 976054733.49290204 myhost 976054733.49290204
FLASER 0 -5.62447945738644517 -0.0516273888214351592 50.2811303917073715 -5.62447945738644517 -0.0516273888214351592 50.2811303917073715 976054730.350921035 myhost 976054730.350921035
FLASER 0 -6.52765479324236964 -0.0641832213671698487 50.35397919399459 -6.52765479324236964 -0.0641832213671698487 50.35397919399459 976054727.772779942 myhost 976054727.772779942
FLASER 0 -6.81252769362736643 -0.0831843124135803191 50.2090856608674159 -6.81252769362736643 -0.0831843124135803191 50.2090856608674159 976054725.293645024 myhost 976054725.293645024
FLASER 0 -6.851431985353579 -0.137106118148861228 49.6888150393616925 -6.851431985353579 -0.137106118148861228 49.6888150393616925 976054723.764201045 myhost 976054723.764201045
FLASER 0 -6.865794618434653 -0.15406110406634263 49.0987796394872902 -6.865794618434653 -0.15406110406634263 49.0987796394872902 976054722.499624968 myhost 976054722.499624968
FLASER 0 -6.90848283624880022 0.00293177427652283572 48.6361934631164772 -6.90848283624880022 0.00293177427652283572 48.6361934631164772 976054720.219861031 myhost 976054720.219861031
FLASER 0 -6.87499451069387657 1.03521554129549043 48.6861799408603559 -6.87499451069387657 1.03521554129549043 48.6861799408603559 976054716.412511945 myhost 976054716.412511945
FLASER 0 -6.88563019282220878 1.53024763203525582 48.6608197846430599 -6.88563019282220878 1.53024763203525582 48.6608197846430599 976054714.678264022 myhost 976054714.678264022
FLASER 0 -6.90670635414155942 2.38682535882999769 48.6967692989419945 -6.90670635414155942 2.38682535882999769 48.6967692989419945 976054711.615972996 myhost 976054711.615972996
FLASER 0 -6.86184158425801982 3.15775505836277448 49.0806420976027411 -6.86184158425801982 3.15775505836277448 49.0806420976027411 976054706.838539958 myhost 976054706.838539958
FLASER 0 -6.85566405122292988 3.22172537996731112 49.6166175569516739 -6.85566405122292988 3.22172537996731112 49.6166175569516739 976054705.58256197 myhost 976054705.58256197
FLASER 0 -6.8347415852647071 3.27659627838010481 50.1101774967775597 -6.8347415852647071 3.27659627838010481 50.1101774967775597 976054703.249981046 myhost 976054703.249981046
FLASER 0 -6.83212528237561045 3.29371276885723496 50.2101652136200585 -6.83212528237561045 3.29371276885723496 50.2101652136200585 976054700.399083972 myhost 976054700.399083972
FLASER 0 -6.85130380795869875 3.23608416270199983 49.8797615071982179 -6.85130380795869875 3.23608416270199983 49.8797615071982179 976054699.705500007 myhost 976054699.705500007
FLASER 0 -6.88544471846353989 3.21343874655903861 49.3569224341038364 -6.88544471846353989 3.21343874655903861 49.3569224341038364 976054698.452173948 myhost 976054698.452173948
FLASER 0 -6.93444833804338412 3.18910320244636747 48.7562723068328907 -6.93444833804338412 3.18910320244636747 48.7562723068328907 976054697.367717981 myhost 976054697.367717981
FLASER 0 -6.98930552883472966 3.2143626444578155 48.232836005729105 -6.98930552883472966 3.2143626444578155 48.232836005729105 976054696.295132995 myhost 976054696.295132995
FLASER 0 -7.01112838121442561 3.27875331862430563 47.5229169879296691 -7.01112838121442561 3.27875331862430563 47.5229169879296691 976054695.748600006 myhost 976054695.748600006
FLASER 0 -7.01985563496689036 3.26984459155797325 47.6207509406520089 -7.01985563496689036 3.26984459155797325 47.6207509406520089 976054695.119143963 myhost 976054695.119143963
FLASER 0 -7.01942785597309538 3.31854867691236777 47.0652406211265912 -7.01942785597309538 3.31854867691236777 47.0652406211265912 976054693.352246046 myhost 976054693.352246046
FLASER 0 -7.00324975090036439 3.37027697175430196 46.5564620694973144 -7.00324975090036439 3.37027697175430196 46.5564620694973144 976054692.252109051 myhost 976054692.252109051
FLASER 0 -6.99570183357270903 3.40413555012897273 45.9861865334582021 -6.99570183357270903 3.40413555012897273 45.9861865334582021 976054691.621176004 myhost 976054691.621176004
FLASER 0 -6.95664958424546054 3.2987179327222389 45.5428063801245955 -6.95664958424546054 3.2987179327222389 45.5428063801245955 976054688.421062946 myhost 976054688.421062946
FLASER 0 -6.96706454236643946 2.32830834468435954 45.5393146447299486 -6.96706454236643946 2.32830834468435954 45.5393146447299486 976054684.928572059 myhost 976054684.928572059
FLASER 0 -6.96261811789351182 1.37839839591092983 45.5869658351687548 -6.96261811789351182 1.37839839591092983 45.5869658351687548 976054681.237717032 myhost 976054681.237717032
FLASER 0 -6.91358093194099155 0.723309372371168768 45.6259241550256149 -6.91358093194099155 0.723309372371168768 45.6259241550256149 976054678.908885002 myhost 976054678.908885002
FLASER 0 -6.88532325613089746 -0.283755584264251237 45.5978498478719132 -6.88532325613089746 -0.283755584264251237 45.5978498478719132 976054675.470793962 myhost 976054675.470793962
FLASER 0 -6.89511470664987769 -1.31082458562637227 45.4494926517649702 -6.89511470664987769 -1.31082458562637227 45.4494926517649702 976054671.891453028 myhost 976054671.891453028
FLASER 0 -6.9592401810149358 -2.2389479204120879 45.4211545216139143 -6.9592401810149358 -2.2389479204120879 45.4211545216139143 976054667.773195028 myhost 976054667.773195028
FLASER 0 -6.92124890617658473 -2.25025377517114089 44.9043228106151631 -6.92124890617658473 -2.25025377517114089 44.9043228106151631 976054667.295349002 myhost 976054667.295349002
FLASER 0 -6.9076428717134597 -2.28320892146495869 44.3392774393087876 -6.9076428717134597 -2.28320892146495869 44.3392774393087876 976054666.105666995 myhost 976054666.105666995
FLASER 0 -7.83574976698410275 -2.21359386775211142 43.8915042548374146 -7.83574976698410275 -2.21359386775211142 43.8915042548374146 976054660.611902952 myhost 976054660.611902952
FLASER 0 -8.83351602751623588 -2.09720476459143823 44.2659579086960875 -8.83351602751623588 -2.09720476459143823 44.2659579086960875 976054655.81843102 myhost 976054655.81843102
