FLASER 0 -19.3993 -6.61009 -23.6424 -19.3993 -6.61009 -23.6424 1409.09999900000003 myhost 1409.09999900000003
FLASER 0 -19.4711362940439834 -7.61415782820396103 -23.653305750291775 -19.4711362940439834 -7.61415782820396103 -23.653305750291775 1406.90000000000009 myhost 1406.90000000000009
FLASER 0 -19.53425771000677 -8.6796861444053004 -23.5915074126149307 -19.53425771000677 -8.6796861444053004 -23.5915074126149307 1404.50999900000011 myhost 1404.50999900000011
FLASER 0 -19.5611872063285617 -9.73415910300156462 -23.5723505444153396 -19.5611872063285617 -9.73415910300156462 -23.5723505444153396 1402.54999900000007 myhost 1402.54999900000007
FLASER 0 -19.5849045123845542 -10.8064621188895327 -23.5565929108820526 -19.5849045123845542 -10.8064621188895327 -23.5565929108820526 1400.58999900000003 myhost 1400.58999900000003
FLASER 0 -19.6269501740127588 -11.9369094657878705 -23.6512509605734564 -19.6269501740127588 -11.9369094657878705 -23.6512509605734564 1398.59999900000003 myhost 1398.59999900000003
FLASER 0 -19.8154125186340018 -12.8418441851385605 -23.7923725904670462 -19.8154125186340018 -12.8418441851385605 -23.7923725904670462 1396.48000000000002 myhost 1396.48000000000002
FLASER 0 -19.981697500045712 -13.840382007465843 -23.7579418231508015 -19.981697500045712 -13.840382007465843 -23.7579418231508015 1394.27999900000009 myhost 1394.27999900000009
FLASER 0 -20.2145318058222578 -14.9612514480885199 -23.7096411852959328 -20.2145318058222578 -14.9612514480885199 -23.7096411852959328 1391.65000000000009 myhost 1391.65000000000009
FLASER 0 -20.3313824570774422 -15.9393796824414764 -23.6353259659392343 -20.3313824570774422 -15.9393796824414764 -23.6353259659392343 1388.90000000000009 myhost 1388.90000000000009
FLASER 0 -20.4516327944939924 -16.9989764908124705 -23.5856425226131883 -20.4516327944939924 -16.9989764908124705 -23.5856425226131883 1385.94000000000005 myhost 1385.94000000000005
FLASER 0 -20.5968731742631128 -18.0765852791628809 -23.8116553638962962 -20.5968731742631128 -18.0765852791628809 -23.8116553638962962 1382.99000000000001 myhost 1382.99000000000001
FLASER 0 -20.7427789714752961 -19.089222654324832 -23.6424166379515022 -20.7427789714752961 -19.089222654324832 -23.6424166379515022 1379.78999900000008 myhost 1379.78999900000008
FLASER 0 -20.7501882284919645 -20.124336363854411 -23.5686700730542249 -20.7501882284919645 -20.124336363854411 -23.5686700730542249 1376.59999900000003 myhost 1376.59999900000003
FLASER 0 -20.7512169217655646 -21.3063319467254182 -23.6233779973118629 -20.7512169217655646 -21.3063319467254182 -23.6233779973118629 1374.11999900000001 myhost 1374.11999900000001
FLASER 0 -20.8801908308313955 -22.1268884822351239 -23.9534971579356579 -20.8801908308313955 -22.1268884822351239 -23.9534971579356579 1372.36999900000001 myhost 1372.36999900000001
FLASER 0 -20.9259971324156631 -22.1754743556859317 -24.576616161233062 -20.9259971324156631 -22.1754743556859317 -24.576616161233062 1371.32999900000004 myhost 1371.32999900000004
FLASER 0 -20.9430159889965744 -22.1723719451411725 -25.1054268766533539 -20.9430159889965744 -22.1723719451411725 -25.1054268766533539 1347.93000000000006 myhost 1347.93000000000006
FLASER 0 -20.9563105659291011 -22.2209953301810152 -25.6110794442881335 -20.9563105659291011 -22.2209953301810152 -25.6110794442881335 1347.28999900000008 myhost 1347.28999900000008
FLASER 0 -20.9840954761221568 -22.2785459206229675 -26.2002914540075338 -20.9840954761221568 -22.2785459206229675 -26.2002914540075338 1346.45000000000005 myhost 1346.45000000000005
FLASER 0 -20.9994545260827792 -22.3043331236659803 -26.7246241916920866 -20.9994545260827792 -22.3043331236659803 -26.7246241916920866 1345.74000000000001 myhost 1345.74000000000001
FLASER 0 -21.0037457500389415 -22.2958100317845087 -27.2479211687140968 -21.0037457500389415 -22.2958100317845087 -27.2479211687140968 1344.94000000000005 myhost 1344.94000000000005
FLASER 0 -20.9974506192203556 -22.2693887798625134 -27.7688084740899868 -20.9974506192203556 -22.2693887798625134 -27.7688084740899868 1344.05999900000006 myhost 1344.05999900000006
FLASER 0 -20.2772401315871988 -21.7539393446775122 -27.3077400724857782 -20.2772401315871988 -21.7539393446775122 -27.3077400724857782 1338.3900000000001 myhost 1338.3900000000001
FLASER 0 -20.0575361861416397 -20.8633431254286883 -26.7439671901660851 -20.0575361861416397 -20.8633431254286883 -26.7439671901660851 1336.50999900000011 myhost 1336.50999900000011
FLASER 0 -19.8986902957168255 -19.8658597676241833 -26.8715797592159227 -19.8986902957168255 -19.8658597676241833 -26.8715797592159227 1334.35999900000002 myhost 1334.35999900000002
FLASER 0 -19.7798409184371131 -18.8080429709374144 -26.7950355900218327 -19.7798409184371131 -18.8080429709374144 -26.7950355900218327 1332 myhost 1332
FLASER 0 -19.7240703047442949 -17.7942322027029256 -26.8368343275335235 -19.7240703047442949 -17.7942322027029256 -26.8368343275335235 1329.72000000000003 myhost 1329.72000000000003
FLASER 0 -19.5375316082924115 -16.6283782083212976 -26.8497065816004401 -19.5375316082924115 -16.6283782083212976 -26.8497065816004401 1327.8900000000001 myhost 1327.8900000000001
FLASER 0 -19.4671931956641657 -15.6175645234721348 -26.7253710885552493 -19.4671931956641657 -15.6175645234721348 -26.7253710885552493 1325.69000000000005 myhost 1325.69000000000005
FLASER 0 -19.424710796561083 -14.5850372175064074 -26.7449810343532022 -19.424710796561083 -14.5850372175064074 -26.7449810343532022 1323.41000000000008 myhost 1323.41000000000008
FLASER 0 -19.4210744317377255 -13.6723091740536322 -26.6896918852937119 -19.4210744317377255 -13.6723091740536322 -26.6896918852937119 1321.25999900000011 myhost 1321.25999900000011
FLASER 0 -19.4046555025152188 -12.5972682151020035 -26.697324210737527 -19.4046555025152188 -12.5972682151020035 -26.697324210737527 1319.53999900000008 myhost 1319.53999900000008
FLASER 0 -19.4159132944886785 -11.5043474416978047 -26.6814459070585102 -19.4159132944886785 -11.5043474416978047 -26.6814459070585102 1317.86999900000001 myhost 1317.86999900000001
FLASER 0 -19.4256074060801147 -10.5080818854827562 -26.6990678251422473 -19.4256074060801147 -10.5080818854827562 -26.6990678251422473 1316.06999900000005 myhost 1316.06999900000005
FLASER 0 -19.4355526629175266 -9.51964486274902733 -26.6925794621734269 -19.4355526629175266 -9.51964486274902733 -26.6925794621734269 1314.2699990000001 myhost 1314.2699990000001
FLASER 0 -19.3995185273789552 -8.48536364100613305 -26.7276464567023027 -19.3995185273789552 -8.48536364100613305 -26.7276464567023027 1312.27999900000009 myhost 1312.27999900000009
FLASER 0 -19.3956826555024762 -7.33712073320537783 -26.7195921276805741 -19.3956826555024762 -7.33712073320537783 -26.7195921276805741 1310.07999900000004 myhost 1310.07999900000004
FLASER 0 -19.3737239918509871 -6.32099913638644484 -26.7223820102957212 -19.3737239918509871 -6.32099913638644484 -26.7223820102957212 1307.79999900000007 myhost 1307.79999900000007
FLASER 0 -19.4045936314084742 -5.29748012694627324 -26.5126772756370173 -19.4045936314084742 -5.29748012694627324 -26.5126772756370173 1305.45000000000005 myhost 1305.45000000000005
FLASER 0 -19.4758588515110738 -4.76218660043219888 -27.0633419309149019 -19.4758588515110738 -4.76218660043219888 -27.0633419309149019 1303.7699990000001 myhost 1303.7699990000001
FLASER 0 -19.5134729483396541 -4.81436128969137211 -27.6323459833849192 -19.5134729483396541 -4.81436128969137211 -27.6323459833849192 1302.61999900000001 myhost 1302.61999900000001
FLASER 0 -19.2878333090571914 -4.60457026648365986 -27.303771612868438 -19.2878333090571914 -4.60457026648365986 -27.303771612868438 1298.42000000000007 myhost 1298.42000000000007
FLASER 0 -18.9727688080907448 -3.8095562650592516 -26.7921565971248725 -18.9727688080907448 -3.8095562650592516 -26.7921565971248725 1296.54999900000007 myhost 1296.54999900000007
FLASER 0 -18.9279129733700984 -2.69332015357590082 -26.7661638204690746 -18.9279129733700984 -2.69332015357590082 -26.7661638204690746 1294.30999900000006 myhost 1294.30999900000006
FLASER 0 -19.0232413269480602 -1.71585250101155973 -26.4175788772290616 -19.0232413269480602 -1.71585250101155973 -26.4175788772290616 1292.50999900000011 myhost 1292.50999900000011
FLASER 0 -19.411497012302334 -0.787138186096746795 -26.266663670673811 -19.411497012302334 -0.787138186096746795 -26.266663670673811 1291.11999900000001 myhost 1291.11999900000001
FLASER 0 -19.8849204278118172 0.137103273486801236 -26.1574045359071512 -19.8849204278118172 0.137103273486801236 -26.1574045359071512 1289.68000000000006 myhost 1289.68000000000006
FLASER 0 -20.2867522912031006 1.10961797112393334 -26.3005164936383444 -20.2867522912031006 1.10961797112393334 -26.3005164936383444 1288.31999900000005 myhost 1288.31999900000005
FLASER 0 -20.4309676836602065 1.3136986607900305 -25.6942485540083645 -20.4309676836602065 1.3136986607900305 -25.6942485540083645 1287.24000000000001 myhost 1287.24000000000001
FLASER 0 -20.964430291628414 1.40897126219810254 -25.0875353096456841 -20.964430291628414 1.40897126219810254 -25.0875353096456841 1286.27999900000009 myhost 1286.27999900000009
FLASER 0 -21.9928455537972489 1.33056716821701171 -24.7091755044425767 -21.9928455537972489 1.33056716821701171 -24.7091755044425767 1284.36999900000001 myhost 1284.36999900000001
FLASER 0 -22.1136667832647156 1.41599854602043695 -24.1804559689410539 -22.1136667832647156 1.41599854602043695 -24.1804559689410539 1283.28999900000008 myhost 1283.28999900000008
FLASER 0 -22.0930547692967423 1.45924147933810189 -23.5354181420871029 -22.0930547692967423 1.45924147933810189 -23.5354181420871029 1282.32999900000004 myhost 1282.32999900000004
FLASER 0 -22.1877448759366338 1.4351366223274129 -22.9893507413441576 -22.1877448759366338 1.4351366223274129 -22.9893507413441576 1281.66000000000008 myhost 1281.66000000000008
FLASER 0 -22.1315853709427017 1.39681780191081439 -22.5289513558709729 -22.1315853709427017 1.39681780191081439 -22.5289513558709729 1280.84999900000003 myhost 1280.84999900000003
FLASER 0 -21.29060994793387 1.31080761800172008 -22.0375363142118665 -21.29060994793387 1.31080761800172008 -22.0375363142118665 1271.3900000000001 myhost 1271.3900000000001
FLASER 0 -20.1620730522227802 1.01819043480540161 -22.0785944661742768 -20.1620730522227802 1.01819043480540161 -22.0785944661742768 1269.86999900000001 myhost 1269.86999900000001
FLASER 0 -19.0854953330833403 1.04165599170659773 -21.8475107531667874 -19.0854953330833403 1.04165599170659773 -21.8475107531667874 1268.40000000000009 myhost 1268.40000000000009
FLASER 0 -18.9498381253055221 1.10318494748633933 -21.2100321504611173 -18.9498381253055221 1.10318494748633933 -21.2100321504611173 1267.44000000000005 myhost 1267.44000000000005
FLASER 0 -18.6636034744562345 1.71709511479066146 -20.6990069014272962 -18.6636034744562345 1.71709511479066146 -20.6990069014272962 1266.40000000000009 myhost 1266.40000000000009
FLASER 0 -18.2843213545091992 2.70261854219864572 -20.7971912798574117 -18.2843213545091992 2.70261854219864572 -20.7971912798574117 1265 myhost 1265
FLASER 0 -17.9909523660650876 3.67467987209339464 -20.5368745019072847 -17.9909523660650876 3.67467987209339464 -20.5368745019072847 1263.56999900000005 myhost 1263.56999900000005
FLASER 0 -17.952143399901427 4.59405515988244328 -20.4047937194613738 -17.952143399901427 4.59405515988244328 -20.4047937194613738 1241.69000000000005 myhost 1241.69000000000005
FLASER 0 -17.8734310723707033 5.62181564834960756 -20.5265288004732049 -17.8734310723707033 5.62181564834960756 -20.5265288004732049 1239.28999900000008 myhost 1239.28999900000008
FLASER 0 -17.7715645930148085 6.6023042404551413 -20.4507326630454962 -17.7715645930148085 6.6023042404551413 -20.4507326630454962 1237.08999900000003 myhost 1237.08999900000003
FLASER 0 -17.702667692204713 7.6340823910441733 -20.4381249330059056 -17.702667692204713 7.6340823910441733 -20.4381249330059056 1235.05999900000006 myhost 1235.05999900000006
FLASER 0 -17.6460656417328465 8.6591312140579717 -20.4934275305369624 -17.6460656417328465 8.6591312140579717 -20.4934275305369624 1233.05999900000006 myhost 1233.05999900000006
FLASER 0 -17.5025687187602408 9.5405390416132505 -20.515874414111547 -17.5025687187602408 9.5405390416132505 -20.515874414111547 1231.09999900000003 myhost 1231.09999900000003
FLASER 0 -17.4382767804067633 10.6309506877748507 -20.496787776087011 -17.4382767804067633 10.6309506877748507 -20.496787776087011 1229.02999900000009 myhost 1229.02999900000009
FLASER 0 -17.3609803734661057 11.621109430719601 -20.4837970535962874 -17.3609803734661057 11.621109430719601 -20.4837970535962874 1227.15000000000009 myhost 1227.15000000000009
FLASER 0 -17.2580845980960547 12.6083183476763114 -20.4773645989242823 -17.2580845980960547 12.6083183476763114 -20.4773645989242823 1225.24000000000001 myhost 1225.24000000000001
FLASER 0 -17.1814155702397215 13.6152637999845769 -20.5062802447141728 -17.1814155702397215 13.6152637999845769 -20.5062802447141728 1223.5199990000001 myhost 1223.5199990000001
FLASER 0 -17.0474586128765964 14.8388034646961398 -20.4852084528411815 -17.0474586128765964 14.8388034646961398 -20.4852084528411815 1221.59999900000003 myhost 1221.59999900000003
FLASER 0 -16.9636795257198791 15.873933864507741 -20.4950779662161473 -16.9636795257198791 15.873933864507741 -20.4950779662161473 1219.17000000000007 myhost 1219.17000000000007
FLASER 0 -16.8220666545378421 16.9550365625972006 -20.4870113924662398 -16.8220666545378421 16.9550365625972006 -20.4870113924662398 1216.65000000000009 myhost 1216.65000000000009
FLASER 0 -16.7370904496576536 18.0480015690338469 -20.5053214299595687 -16.7370904496576536 18.0480015690338469 -20.5053214299595687 1214.46000000000004 myhost 1214.46000000000004
FLASER 0 -16.6429498313460904 18.9398318413158968 -20.5116759443358916 -16.6429498313460904 18.9398318413158968 -20.5116759443358916 1212.33999900000003 myhost 1212.33999900000003
FLASER 0 -16.4643011169767881 19.542970346496066 -21.0387634436447399 -16.4643011169767881 19.542970346496066 -21.0387634436447399 1211.06999900000005 myhost 1211.06999900000005
FLASER 0 -16.4644247401085444 19.5448713398599487 -20.5131557959326649 -16.4644247401085444 19.5448713398599487 -20.5131557959326649 1208.71000000000004 myhost 1208.71000000000004
FLASER 0 -16.4193171403447025 19.5392071740824456 -19.9262465791815515 -16.4193171403447025 19.5392071740824456 -19.9262465791815515 1207.86999900000001 myhost 1207.86999900000001
FLASER 0 -16.3578227460530563 19.6840249481911229 -19.4016556594449412 -16.3578227460530563 19.6840249481911229 -19.4016556594449412 1207.06999900000005 myhost 1207.06999900000005
FLASER 0 -16.3187809722731423 19.702527254622062 -18.7537532842383285 -16.3187809722731423 19.702527254622062 -18.7537532842383285 1206.10999900000002 myhost 1206.10999900000002
FLASER 0 -16.3677838862241849 19.7683445693507913 -18.1582542222925731 -16.3677838862241849 19.7683445693507913 -18.1582542222925731 1205.54999900000007 myhost 1205.54999900000007
FLASER 0 -16.7682220862198577 19.3637599753755119 -17.6097829904860461 -16.7682220862198577 19.3637599753755119 -17.6097829904860461 1183.63000000000011 myhost 1183.63000000000011
FLASER 0 -16.8580948444670327 18.2201040315307914 -17.405684824972866 -16.8580948444670327 18.2201040315307914 -17.405684824972866 1181.27999900000009 myhost 1181.27999900000009
FLASER 0 -16.9655990440197506 17.259443465859583 -17.3831741121204999 -16.9655990440197506 17.259443465859583 -17.3831741121204999 1179.03999900000008 myhost 1179.03999900000008
FLASER 0 -17.0873239917905835 16.2381972256386256 -17.3969264107196864 -17.0873239917905835 16.2381972256386256 -17.3969264107196864 1176.80999900000006 myhost 1176.80999900000006
FLASER 0 -17.2561078994041779 15.2504475376342405 -17.3508542264094103 -17.2561078994041779 15.2504475376342405 -17.3508542264094103 1174.49000000000001 myhost 1174.49000000000001
FLASER 0 -17.3232937726435949 14.3139019244443695 -17.3585249231828627 -17.3232937726435949 14.3139019244443695 -17.3585249231828627 1172.21000000000004 myhost 1172.21000000000004
FLASER 0 -17.4598221389990726 13.2098217556136426 -17.3598775893725197 -17.4598221389990726 13.2098217556136426 -17.3598775893725197 1170.0199990000001 myhost 1170.0199990000001
FLASER 0 -17.5487862476996135 12.1199417822636075 -17.3887360339463868 -17.5487862476996135 12.1199417822636075 -17.3887360339463868 1167.66000000000008 myhost 1167.66000000000008
FLASER 0 -17.6631262634038784 11.1255357128482135 -17.4394445656691133 -17.6631262634038784 11.1255357128482135 -17.4394445656691133 1165.43000000000006 myhost 1165.43000000000006
FLASER 0 -18.002458279706822 10.1277731428264044 -17.4980664095055296 -18.002458279706822 10.1277731428264044 -17.4980664095055296 1162.99000000000001 myhost 1162.99000000000001
FLASER 0 -18.1246324931019416 8.99554556320791399 -17.4391296541364369 -18.1246324931019416 8.99554556320791399 -17.4391296541364369 1159.20000000000005 myhost 1159.20000000000005
FLASER 0 -18.1897231430064252 8.15928608969242042 -17.3243408925587019 -18.1897231430064252 8.15928608969242042 -17.3243408925587019 1156.35999900000002 myhost 1156.35999900000002
FLASER 0 -18.2194867163866441 7.09894194612523144 -17.3181250013730441 -18.2194867163866441 7.09894194612523144 -17.3181250013730441 1154.25 myhost 1154.25
FLASER 0 -18.2433843573405952 6.08312702575222009 -17.3149957328030304 -18.2433843573405952 6.08312702575222009 -17.3149957328030304 1152.17000000000007 myhost 1152.17000000000007
FLASER 0 -18.2694213982990874 5.06851757818908943 -17.3060861189767188 -18.2694213982990874 5.06851757818908943 -17.3060861189767188 1145.25999900000011 myhost 1145.25999900000011
FLASER 0 -18.1832530511504658 4.07887563087770566 -17.2375722876139115 -18.1832530511504658 4.07887563087770566 -17.2375722876139115 1143.30999900000006 myhost 1143.30999900000006
FLASER 0 -18.1324395802655474 3.1386310155243069 -17.0712089741708191 -18.1324395802655474 3.1386310155243069 -17.0712089741708191 1141.82999900000004 myhost 1141.82999900000004
FLASER 0 -17.8810697000342245 2.10649340476212377 -17.1603036193749716 -17.8810697000342245 2.10649340476212377 -17.1603036193749716 1140.27999900000009 myhost 1140.27999900000009
FLASER 0 -17.8814777707173214 1.25905995418205663 -17.6635617106212131 -17.8814777707173214 1.25905995418205663 -17.6635617106212131 1139.23000000000002 myhost 1139.23000000000002
FLASER 0 -18.3677354925479044 0.711475001034854282 -18.3059947621371713 -18.3677354925479044 0.711475001034854282 -18.3059947621371713 1138.20000000000005 myhost 1138.20000000000005
FLASER 0 -19.2110858693053892 0.576733742400684979 -18.875304181811682 -19.2110858693053892 0.576733742400684979 -18.875304181811682 1136.72000000000003 myhost 1136.72000000000003
FLASER 0 -20.2816932644466341 0.640879815681793641 -19.059879944516382 -20.2816932644466341 0.640879815681793641 -19.059879944516382 1135.20000000000005 myhost 1135.20000000000005
FLASER 0 -20.4071959083285144 0.720758117890411554 -19.6320584106134 -20.4071959083285144 0.720758117890411554 -19.6320584106134 1113.83999900000003 myhost 1113.83999900000003
FLASER 0 -21.2229253529105861 1.41147442693228364 -19.2589559402511838 -21.2229253529105861 1.41147442693228364 -19.2589559402511838 1111.7699990000001 myhost 1111.7699990000001
FLASER 0 -22.219050825244075 1.49682018449797338 -18.9926424621202443 -22.219050825244075 1.49682018449797338 -18.9926424621202443 1109.73000000000002 myhost 1109.73000000000002
FLASER 0 -23.2260023958606929 1.58135624291768351 -18.962020062215295 -23.2260023958606929 1.58135624291768351 -18.962020062215295 1107.56999900000005 myhost 1107.56999900000005
FLASER 0 -24.1959811326471588 1.66537852549147392 -19.0974938435336483 -24.1959811326471588 1.66537852549147392 -19.0974938435336483 1105.1400000000001 myhost 1105.1400000000001
FLASER 0 -25.28739794700207 1.86818516822090785 -18.8971510343892959 -25.28739794700207 1.86818516822090785 -18.8971510343892959 1102.66000000000008 myhost 1102.66000000000008
FLASER 0 -26.2880419733549644 1.89877646067786876 -18.8949532689666064 -26.2880419733549644 1.89877646067786876 -18.8949532689666064 1100.50999900000011 myhost 1100.50999900000011
FLASER 0 -27.3265829580716968 1.92653962700447212 -18.9104851254840831 -27.3265829580716968 1.92653962700447212 -18.9104851254840831 1098.02999900000009 myhost 1098.02999900000009
FLASER 0 -28.3898350810211397 1.97275485401193151 -18.8641743769282364 -28.3898350810211397 1.97275485401193151 -18.8641743769282364 1095.3900000000001 myhost 1095.3900000000001
FLASER 0 -29.4234854583935359 2.04230640842283684 -18.9209965044780333 -29.4234854583935359 2.04230640842283684 -18.9209965044780333 1092.96000000000004 myhost 1092.96000000000004
FLASER 0 -30.3863650586186509 2.17383125711148173 -19.1486422539635797 -30.3863650586186509 2.17383125711148173 -19.1486422539635797 1090.97000000000003 myhost 1090.97000000000003
FLASER 0 -31.5562869405368254 2.34528223572168626 -18.9117127206846796 -31.5562869405368254 2.34528223572168626 -18.9117127206846796 1089.32999900000004 myhost 1089.32999900000004
FLASER 0 -32.7011086186401769 2.43640281638320344 -18.9380462574808313 -32.7011086186401769 2.43640281638320344 -18.9380462574808313 1087.65000000000009 myhost 1087.65000000000009
FLASER 0 -33.7598035799364098 2.69516617321577057 -19.0440398498902645 -33.7598035799364098 2.69516617321577057 -19.0440398498902645 1085.93000000000006 myhost 1085.93000000000006
FLASER 0 -34.7827415728399103 2.80198584700889386 -19.0408161199200485 -34.7827415728399103 2.80198584700889386 -19.0408161199200485 1084.22000000000003 myhost 1084.22000000000003
FLASER 0 -35.7514213901050795 2.90099790352200015 -18.8990739782510673 -35.7514213901050795 2.90099790352200015 -18.8990739782510673 1082.5 myhost 1082.5
FLASER 0 -36.7716726324841972 2.94979796053122012 -18.8769136148902241 -36.7716726324841972 2.94979796053122012 -18.8769136148902241 1080.46000000000004 myhost 1080.46000000000004
FLASER 0 -37.7371083124576003 3.10878496796939707 -19.0478530348841879 -37.7371083124576003 3.10878496796939707 -19.0478530348841879 1078.86999900000001 myhost 1078.86999900000001
FLASER 0 -38.7340199044255797 3.36077148952437588 -19.0507861769760574 -38.7340199044255797 3.36077148952437588 -19.0507861769760574 1077.3900000000001 myhost 1077.3900000000001
FLASER 0 -38.7085587417919328 3.29979019016851627 -18.5561045648866632 -38.7085587417919328 3.29979019016851627 -18.5561045648866632 1072.48000000000002 myhost 1072.48000000000002
FLASER 0 -38.7207120957694286 3.42118886292388824 -18.0147500508445795 -38.7207120957694286 3.42118886292388824 -18.0147500508445795 1071.72000000000003 myhost 1071.72000000000003
FLASER 0 -38.8392424329293391 3.35062791694363105 -17.4646382482688161 -38.8392424329293391 3.35062791694363105 -17.4646382482688161 1070.83999900000003 myhost 1070.83999900000003
FLASER 0 -38.8918316186743596 3.32763947220433032 -16.9654016299547052 -38.8918316186743596 3.32763947220433032 -16.9654016299547052 1070.20000000000005 myhost 1070.20000000000005
FLASER 0 -38.9467120876927524 3.26975630980714538 -16.3685537995269357 -38.9467120876927524 3.26975630980714538 -16.3685537995269357 1069.41000000000008 myhost 1069.41000000000008
FLASER 0 -38.4422946089456588 3.14644085627963932 -15.9506518325442972 -38.4422946089456588 3.14644085627963932 -15.9506518325442972 1047.35999900000002 myhost 1047.35999900000002
FLASER 0 -37.3924855308904753 2.87385784217370999 -16.0094385599663269 -37.3924855308904753 2.87385784217370999 -16.0094385599663269 1045.97000000000003 myhost 1045.97000000000003
FLASER 0 -36.3722404185806454 2.65480507833121315 -15.9159554296568508 -36.3722404185806454 2.65480507833121315 -15.9159554296568508 1044.49000000000001 myhost 1044.49000000000001
FLASER 0 -35.4333971435016579 2.58376989785499012 -15.7298100663000895 -35.4333971435016579 2.58376989785499012 -15.7298100663000895 1043.13000000000011 myhost 1043.13000000000011
FLASER 0 -34.2898318564674014 2.56434051884618652 -15.6079634752786287 -34.2898318564674014 2.56434051884618652 -15.6079634752786287 1041.22000000000003 myhost 1041.22000000000003
FLASER 0 -33.1937506025475528 2.52282778704463029 -15.77655908050885 -33.1937506025475528 2.52282778704463029 -15.77655908050885 1039.74000000000001 myhost 1039.74000000000001
FLASER 0 -32.0249802569302773 2.44245654545302449 -15.72708193863056 -32.0249802569302773 2.44245654545302449 -15.72708193863056 1038.1400000000001 myhost 1038.1400000000001
FLASER 0 -30.9190579391144524 2.35201319631348893 -15.825088001283147 -30.9190579391144524 2.35201319631348893 -15.825088001283147 1036.5 myhost 1036.5
FLASER 0 -29.7586171908504085 2.24342539424418286 -15.8168241719284737 -29.7586171908504085 2.24342539424418286 -15.8168241719284737 1034.95000000000005 myhost 1034.95000000000005
FLASER 0 -28.5993348747374334 2.19675367618475637 -15.6943753768431975 -28.5993348747374334 2.19675367618475637 -15.6943753768431975 1033.43000000000006 myhost 1033.43000000000006
FLASER 0 -27.2976159281853334 1.98000506648756103 -15.9962245786606232 -27.2976159281853334 1.98000506648756103 -15.9962245786606232 1031.78999900000008 myhost 1031.78999900000008
FLASER 0 -26.3651264512052705 1.6438187887408211 -15.8597737288412137 -26.3651264512052705 1.6438187887408211 -15.8597737288412137 1030.19000000000005 myhost 1030.19000000000005
FLASER 0 -25.4054493606320726 1.56727278266785031 -15.7484282412497034 -25.4054493606320726 1.56727278266785031 -15.7484282412497034 1028.72000000000003 myhost 1028.72000000000003
FLASER 0 -24.1456377093596402 1.52138005717421732 -15.7416340005861475 -24.1456377093596402 1.52138005717421732 -15.7416340005861475 1026.6400000000001 myhost 1026.6400000000001
FLASER 0 -22.9298287156763791 1.46858043776503111 -15.7326189491485273 -22.9298287156763791 1.46858043776503111 -15.7326189491485273 1024.55999900000006 myhost 1024.55999900000006
FLASER 0 -21.8010770308976447 1.4058645294370673 -15.7246260489288989 -21.8010770308976447 1.4058645294370673 -15.7246260489288989 1022.52999899899999 myhost 1022.52999899899999
FLASER 0 -20.92796965411247 1.39492879771768674 -15.7275670559165484 -20.92796965411247 1.39492879771768674 -15.7275670559165484 1020.85000000000002 myhost 1020.85000000000002
FLASER 0 -19.778606969064672 1.20054696436615838 -16.0530667360230694 -19.778606969064672 1.20054696436615838 -16.0530667360230694 1019.21000000000004 myhost 1019.21000000000004
FLASER 0 -18.8069266357052172 0.965710329356323727 -15.5351658011049079 -18.8069266357052172 0.965710329356323727 -15.5351658011049079 1017.77999899899999 myhost 1017.77999899899999
FLASER 0 -17.7767396862957554 1.43592851040104996 -15.1622274273183013 -17.7767396862957554 1.43592851040104996 -15.1622274273183013 1016.139998999 myhost 1016.139998999
FLASER 0 -16.837730246923222 1.92200749405687277 -15.3398881216898673 -16.837730246923222 1.92200749405687277 -15.3398881216898673 987.190000000000055 myhost 987.190000000000055
FLASER 0 -16.8837929274825918 2.02746730271352771 -15.9476854027412749 -16.8837929274825918 2.02746730271352771 -15.9476854027412749 986.39999899899999 myhost 986.39999899899999
FLASER 0 -16.8167858263993928 2.04145641707084335 -16.681011798642924 -16.8167858263993928 2.04145641707084335 -16.681011798642924 985.32000000000005 myhost 985.32000000000005
FLASER 0 -16.771956512863607 2.07321641821755431 -17.1831639728483445 -16.771956512863607 2.07321641821755431 -17.1831639728483445 984.600000000000023 myhost 984.600000000000023
FLASER 0 -16.7307681906765389 1.72800911838493154 -16.9303244929428978 -16.7307681906765389 1.72800911838493154 -16.9303244929428978 974.980000000000018 myhost 974.980000000000018
FLASER 0 -16.6526512747865745 1.42705979044492914 -16.3167711920891456 -16.6526512747865745 1.42705979044492914 -16.3167711920891456 974.100999000000002 myhost 974.100999000000002
FLASER 0 -15.9751919750783138 1.11846105510348792 -15.8305607293543744 -15.9751919750783138 1.11846105510348792 -15.8305607293543744 972.620000000000005 myhost 972.620000000000005
FLASER 0 -14.8864359721882291 1.1204978387740292 -15.7996184689835317 -14.8864359721882291 1.1204978387740292 -15.7996184689835317 970.259998999000004 myhost 970.259998999000004
FLASER 0 -13.8618059541251526 0.966552343325207119 -15.7754463196872905 -13.8618059541251526 0.966552343325207119 -15.7754463196872905 967.389998998999999 myhost 967.389998998999999
FLASER 0 -12.7971669149625473 0.952418186055304261 -15.7432449882546699 -12.7971669149625473 0.952418186055304261 -15.7432449882546699 964.879998999000009 myhost 964.879998999000009
FLASER 0 -11.6631659453780063 0.843003257547332963 -15.8213763567234462 -11.6631659453780063 0.843003257547332963 -15.8213763567234462 963.080000000000041 myhost 963.080000000000041
FLASER 0 -10.581670060712085 0.76448034726039904 -15.7060704404693396 -10.581670060712085 0.76448034726039904 -15.7060704404693396 961.440000000000055 myhost 961.440000000000055
FLASER 0 -9.46561255503591958 0.795556389933510411 -15.7157590474795512 -9.46561255503591958 0.795556389933510411 -15.7157590474795512 959.919998998999972 myhost 959.919998998999972
FLASER 0 -8.37190890178791314 0.736924020976624461 -15.6767447502457546 -8.37190890178791314 0.736924020976624461 -15.6767447502457546 958.490000000000009 myhost 958.490000000000009
FLASER 0 -7.59321023559349317 0.845792733272770381 -16.0447952598704831 -7.59321023559349317 0.845792733272770381 -16.0447952598704831 957.169998998999972 myhost 957.169998998999972
FLASER 0 -7.51121187890499886 0.811908199621200422 -16.4191538344198733 -7.51121187890499886 0.811908199621200422 -16.4191538344198733 950.059998998999959 myhost 950.059998998999959
FLASER 0 -6.90976585770413365 0.661544103395535044 -15.8045245928490061 -6.90976585770413365 0.661544103395535044 -15.8045245928490061 948.309998998999959 myhost 948.309998998999959
FLASER 0 -5.67952423748422586 0.598430828196401365 -15.6515376172848626 -5.67952423748422586 0.598430828196401365 -15.6515376172848626 946.710000000000036 myhost 946.710000000000036
FLASER 0 -4.5245783760682361 0.592197284803730462 -15.6703136923016739 -4.5245783760682361 0.592197284803730462 -15.6703136923016739 944.990000000000009 myhost 944.990000000000009
FLASER 0 -3.44734974935882121 0.598840929590714666 -15.8359363596093363 -3.44734974935882121 0.598840929590714666 -15.8359363596093363 943.39999899899999 myhost 943.39999899899999
FLASER 0 -2.40667464858669522 0.30490545174205097 -16.0541812502928778 -2.40667464858669522 0.30490545174205097 -16.0541812502928778 942 myhost 942
FLASER 0 -1.3657682997184506 0.0691296279695509247 -15.8128104645298322 -1.3657682997184506 0.0691296279695509247 -15.8128104645298322 940.440000000000055 myhost 940.440000000000055
FLASER 0 -0.462452154481305222 0.116288006781332748 -15.3113816786732198 -0.462452154481305222 0.116288006781332748 -15.3113816786732198 939 myhost 939
FLASER 0 0.123019283823559228 0.387322348340663203 -15.7685192743987486 0.123019283823559228 0.387322348340663203 -15.7685192743987486 937.801000000000045 myhost 937.801000000000045
FLASER 0 0.144174081807190407 0.43310627987105349 -16.1016794547636657 0.144174081807190407 0.43310627987105349 -16.1016794547636657 917.279998998999986 myhost 917.279998998999986
FLASER 0 0.0912631157749216049 0.331091464003952396 -15.5925409394828645 0.0912631157749216049 0.331091464003952396 -15.5925409394828645 916.39999899899999 myhost 916.39999899899999
FLASER 0 0.214320670899327242 0.306728175689842952 -15.0279437622480376 0.214320670899327242 0.306728175689842952 -15.0279437622480376 915.690000000000055 myhost 915.690000000000055
FLASER 0 0.192124795381291624 0.30277892238762405 -14.479438939260298 0.192124795381291624 0.30277892238762405 -14.479438939260298 914.850000000000023 myhost 914.850000000000023
FLASER 0 0.198301530774558477 0.313063472957598177 -13.9490565770838995 0.198301530774558477 0.313063472957598177 -13.9490565770838995 914.049998998999968 myhost 914.049998998999968
FLASER 0 0.347130728138866806 0.369039772065310301 -13.2647479012905745 0.347130728138866806 0.369039772065310301 -13.2647479012905745 913.409998998999981 myhost 913.409998998999981
FLASER 0 -0.272650929623225124 0.475912383608890988 -12.691261006677097 -0.272650929623225124 0.475912383608890988 -12.691261006677097 900 myhost 900
FLASER 0 -1.23599808171408809 0.476679310856114646 -12.7952022468434023 -1.23599808171408809 0.476679310856114646 -12.7952022468434023 898.240000000000009 myhost 898.240000000000009
FLASER 0 -1.34452625176936502 0.481238326493940716 -13.2770945905345386 -1.34452625176936502 0.481238326493940716 -13.2770945905345386 897.279998998999986 myhost 897.279998998999986
FLASER 0 -1.26667504107486795 0.462606909032044378 -13.8277687175426909 -1.26667504107486795 0.462606909032044378 -13.8277687175426909 896.32000000000005 myhost 896.32000000000005
FLASER 0 -1.29288761353095061 0.450885391025538595 -14.3372215905110174 -1.29288761353095061 0.450885391025538595 -14.3372215905110174 895.600000000000023 myhost 895.600000000000023
FLASER 0 -1.35066988737977778 0.455782944837299142 -14.9378378214545577 -1.35066988737977778 0.455782944837299142 -14.9378378214545577 894.879998999000009 myhost 894.879998999000009
FLASER 0 -1.27433098392845046 0.540305638098468877 -15.5531329749275962 -1.27433098392845046 0.540305638098468877 -15.5531329749275962 893.929998998999963 myhost 893.929998998999963
FLASER 0 -0.327961667457008332 0.422461588858393355 -15.6076260399382925 -0.327961667457008332 0.422461588858393355 -15.6076260399382925 872.57000000000005 myhost 872.57000000000005
FLASER 0 -0.378910702042623782 0.459086466384810987 -15.0164362417808803 -0.378910702042623782 0.459086466384810987 -15.0164362417808803 871.730998999000008 myhost 871.730998999000008
FLASER 0 -0.141092830212102283 0.784933112716445502 -14.4009604406911009 -0.141092830212102283 0.784933112716445502 -14.4009604406911009 870.769998998999995 myhost 870.769998998999995
FLASER 0 0.00570679928809706555 1.75447199414922106 -14.1980538970642218 0.00570679928809706555 1.75447199414922106 -14.1980538970642218 868.410998998999958 myhost 868.410998998999958
FLASER 0 -0.0281120420666730285 2.73731434040083732 -14.1638364284953049 -0.0281120420666730285 2.73731434040083732 -14.1638364284953049 865.5 myhost 865.5
FLASER 0 0.0337715137477454311 3.79966389065924082 -14.1498616839037918 0.0337715137477454311 3.79966389065924082 -14.1498616839037918 862.580000000000041 myhost 862.580000000000041
FLASER 0 0.132297003487361398 4.80695562998249581 -14.1570899763915712 0.132297003487361398 4.80695562998249581 -14.1570899763915712 859.669998998999972 myhost 859.669998998999972
FLASER 0 0.281486674104619805 5.577482534748186 -14.2615921455416412 0.281486674104619805 5.577482534748186 -14.2615921455416412 856.840000000000032 myhost 856.840000000000032
FLASER 0 0.428184873369129582 6.58132659616339932 -14.2639168036670192 0.428184873369129582 6.58132659616339932 -14.2639168036670192 854.080000000000041 myhost 854.080000000000041
FLASER 0 0.518370279423504665 7.59422755777573233 -14.2760937231165119 0.518370279423504665 7.59422755777573233 -14.2760937231165119 851.131998998999961 myhost 851.131998998999961
FLASER 0 0.608391692145598184 8.66771093690463523 -14.2104958921295861 0.608391692145598184 8.66771093690463523 -14.2104958921295861 848.049998998999968 myhost 848.049998998999968
FLASER 0 0.680147939567840032 9.75433782418125617 -14.2227983928024706 0.680147939567840032 9.75433782418125617 -14.2227983928024706 844.860000000000014 myhost 844.860000000000014
FLASER 0 0.752615820749517606 10.7072641240333191 -14.2356469866720321 0.752615820749517606 10.7072641240333191 -14.2356469866720321 841.539998998999977 myhost 841.539998998999977
FLASER 0 0.809390014649955969 11.7297228719657713 -14.161627843989347 0.809390014649955969 11.7297228719657713 -14.161627843989347 838.470000000000027 myhost 838.470000000000027
FLASER 0 0.908101746131772636 12.7848371282533435 -14.2465707082726158 0.908101746131772636 12.7848371282533435 -14.2465707082726158 835.440000000000055 myhost 835.440000000000055
FLASER 0 1.06080813672425922 13.6551770330223672 -14.2945766881010545 1.06080813672425922 13.6551770330223672 -14.2945766881010545 832.440000000000055 myhost 832.440000000000055
FLASER 0 1.19488619536249141 14.712261904600167 -14.1964295187004268 1.19488619536249141 14.712261904600167 -14.1964295187004268 829.490000000000009 myhost 829.490000000000009
FLASER 0 1.19452191806989871 15.7398500823074325 -14.1986925540045839 1.19452191806989871 15.7398500823074325 -14.1986925540045839 826.409998998999981 myhost 826.409998998999981
FLASER 0 1.28992053939427387 16.7862960799072454 -14.2181625280384889 1.28992053939427387 16.7862960799072454 -14.2181625280384889 823.340000000000032 myhost 823.340000000000032
FLASER 0 1.32486227311486249 17.7863785244660058 -14.0124821773396491 1.32486227311486249 17.7863785244660058 -14.0124821773396491 820.259998999000004 myhost 820.259998999000004
FLASER 0 1.36083521693188625 18.5389437997328343 -14.1225940695166514 1.36083521693188625 18.5389437997328343 -14.1225940695166514 817.429998998999963 myhost 817.429998998999963
FLASER 0 1.38322345636326749 18.6768054585396435 -13.6015999500687794 1.38322345636326749 18.6768054585396435 -13.6015999500687794 816.629998999000009 myhost 816.629998999000009
FLASER 0 1.42121926768885531 18.6769736266991337 -12.9817913046874498 1.42121926768885531 18.6769736266991337 -12.9817913046874498 815.671000000000049 myhost 815.671000000000049
FLASER 0 1.39879585787093252 18.762819813677087 -12.4476962465824474 1.39879585787093252 18.762819813677087 -12.4476962465824474 799.580000000000041 myhost 799.580000000000041
FLASER 0 1.38940926793697939 18.8108551894647142 -11.9306405492294907 1.38940926793697939 18.8108551894647142 -11.9306405492294907 798.870000000000005 myhost 798.870000000000005
FLASER 0 1.33609239356419263 18.8446567348246994 -11.3159812471343546 1.33609239356419263 18.8446567348246994 -11.3159812471343546 798.019998998999995 myhost 798.019998998999995
FLASER 0 1.28295951311957812 18.8667070032505499 -10.7987319197694394 1.28295951311957812 18.8667070032505499 -10.7987319197694394 797.299998998999968 myhost 797.299998998999968
FLASER 0 1.30940666678817097 18.8368727988397886 -10.1630311152780575 1.30940666678817097 18.8368727988397886 -10.1630311152780575 796.340000000000032 myhost 796.340000000000032
FLASER 0 1.38712221664234248 18.6873045219325533 -9.51977573844758496 1.38712221664234248 18.6873045219325533 -9.51977573844758496 795.551000000000045 myhost 795.551000000000045
FLASER 0 1.3646715192001635 18.752834557399126 -8.99336610247023316 1.3646715192001635 18.752834557399126 -8.99336610247023316 791.390998998999976 myhost 791.390998998999976
FLASER 0 1.37985655583421307 18.6740304398460033 -8.36438568427798224 1.37985655583421307 18.6740304398460033 -8.36438568427798224 790.522000000000048 myhost 790.522000000000048
FLASER 0 1.40326134263315794 18.706179088221603 -7.83310186260814056 1.40326134263315794 18.706179088221603 -7.83310186260814056 789.759998999000004 myhost 789.759998999000004
FLASER 0 1.41901513284796299 18.7073331459238936 -7.21827231065705277 1.41901513284796299 18.7073331459238936 -7.21827231065705277 788.879998999000009 myhost 788.879998999000009
FLASER 0 1.43551058098699524 18.6422572155543662 -6.58996602342116411 1.43551058098699524 18.6422572155543662 -6.58996602342116411 788.240000000000009 myhost 788.240000000000009
FLASER 0 1.4318799237748383 18.6899631034006219 -6.27925405356525612 1.4318799237748383 18.6899631034006219 -6.27925405356525612 785.640998998999976 myhost 785.640998998999976
FLASER 0 1.32231528761695882 18.7164050496870757 -6.15025921084924487 1.32231528761695882 18.7164050496870757 -6.15025921084924487 779.019998998999995 myhost 779.019998998999995
FLASER 0 0.998549460979944792 18.7399212511187478 -6.21203147966186009 0.998549460979944792 18.7399212511187478 -6.21203147966186009 777.700000000000045 myhost 777.700000000000045
FLASER 0 0.00913974259833190417 18.9405406694912806 -6.45932569138520041 0.00913974259833190417 18.9405406694912806 -6.45932569138520041 774.029998998999986 myhost 774.029998998999986
FLASER 0 -0.964242777497487769 19.1053170451173067 -6.41422176030311508 -0.964242777497487769 19.1053170451173067 -6.41422176030311508 770.75 myhost 770.75
FLASER 0 -1.98277829656922377 19.2965407315950941 -6.47617252724127379 -1.98277829656922377 19.2965407315950941 -6.47617252724127379 767.360000000000014 myhost 767.360000000000014
FLASER 0 -3.08232878216355566 19.5151737424972005 -6.46085583111673678 -3.08232878216355566 19.5151737424972005 -6.46085583111673678 764.120000000000005 myhost 764.120000000000005
FLASER 0 -4.03105375166585134 19.5817828909388183 -6.44948888972414203 -4.03105375166585134 19.5817828909388183 -6.44948888972414203 760.889998998999999 myhost 760.889998998999999
FLASER 0 -5.06950415872413807 19.7066965150195976 -6.46888978626770594 -5.06950415872413807 19.7066965150195976 -6.46888978626770594 756.461000000000013 myhost 756.461000000000013
FLASER 0 -6.18163212987519728 19.8693115373731786 -6.36077878832796362 -6.18163212987519728 19.8693115373731786 -6.36077878832796362 753.301000000000045 myhost 753.301000000000045
FLASER 0 -7.16048133330813208 19.9787619636324187 -6.3471697067125703 -7.16048133330813208 19.9787619636324187 -6.3471697067125703 750.030998998999962 myhost 750.030998998999962
FLASER 0 -8.11343847781915883 20.0037031646955121 -6.35166181304844724 -8.11343847781915883 20.0037031646955121 -6.35166181304844724 746.480000000000018 myhost 746.480000000000018
FLASER 0 -8.98778277625909539 20.0477569021502973 -6.35104797706071889 -8.98778277625909539 20.0477569021502973 -6.35104797706071889 743.291000000000054 myhost 743.291000000000054
FLASER 0 -9.9643105535283425 20.1728114680979473 -6.42987110585923904 -9.9643105535283425 20.1728114680979473 -6.42987110585923904 739.889998998999999 myhost 739.889998998999999
FLASER 0 -11.0201708144882211 20.2651483221961719 -6.37124457703826153 -11.0201708144882211 20.2651483221961719 -6.37124457703826153 736.610998999000003 myhost 736.610998999000003
FLASER 0 -12.1328059689520877 20.4256044624289537 -6.36351837066376458 -12.1328059689520877 20.4256044624289537 -6.36351837066376458 733.620000000000005 myhost 733.620000000000005
FLASER 0 -13.1258676534702019 20.3096188852782014 -6.35492452521665552 -13.1258676534702019 20.3096188852782014 -6.35492452521665552 730.470000000000027 myhost 730.470000000000027
FLASER 0 -13.6944908997666257 20.3642839183875033 -6.040155981423867 -13.6944908997666257 20.3642839183875033 -6.040155981423867 728.159998998999981 myhost 728.159998998999981
FLASER 0 -13.859816990543349 20.3291414901371823 -6.56477946482645081 -13.859816990543349 20.3291414901371823 -6.56477946482645081 726.350000000000023 myhost 726.350000000000023
FLASER 0 -14.215724508380486 20.4441821613460348 -6.67273414557409605 -14.215724508380486 20.4441821613460348 -6.67273414557409605 723.759998999000004 myhost 723.759998999000004
FLASER 0 -15.2553212944139851 20.6857682258900262 -6.46559362192259801 -15.2553212944139851 20.6857682258900262 -6.46559362192259801 720.679998998999963 myhost 720.679998998999963
FLASER 0 -16.3329904635244034 20.8648096540742145 -6.18582594509139128 -16.3329904635244034 20.8648096540742145 -6.18582594509139128 719.049998998999968 myhost 719.049998998999968
FLASER 0 -16.4940560485231273 20.8256111425412413 -6.16370854924915257 -16.4940560485231273 20.8256111425412413 -6.16370854924915257 700.840000000000032 myhost 700.840000000000032
FLASER 0 -16.4060426662452947 20.6220165673185996 -6.7767676036449167 -16.4060426662452947 20.6220165673185996 -6.7767676036449167 700.039998998999977 myhost 700.039998998999977
FLASER 0 -16.3893283158297542 20.6227440687944679 -7.30586656874123896 -16.3893283158297542 20.6227440687944679 -7.30586656874123896 699.39999899899999 myhost 699.39999899899999
FLASER 0 -16.4496634947267353 20.6244714103992166 -8.02537296633604313 -16.4496634947267353 20.6244714103992166 -8.02537296633604313 698.370000000000005 myhost 698.370000000000005
FLASER 0 -16.4930129366839644 20.659770772451207 -8.12084261206612723 -16.4930129366839644 20.659770772451207 -8.12084261206612723 694.461998999000002 myhost 694.461998999000002
FLASER 0 -16.4893620881491856 20.7358072886129428 -7.51542721272825709 -16.4893620881491856 20.7358072886129428 -7.51542721272825709 693.410998998999958 myhost 693.410998998999958
FLASER 0 -16.4441857865686245 20.7172310415981116 -6.99441583855568272 -16.4441857865686245 20.7172310415981116 -6.99441583855568272 692.690000000000055 myhost 692.690000000000055
FLASER 0 -16.5030767941726744 20.8370497477247802 -6.37950498321329729 -16.5030767941726744 20.8370497477247802 -6.37950498321329729 692.059998998999959 myhost 692.059998998999959
FLASER 0 -17.4709093108936102 20.8813943157272206 -6.38936435698639116 -17.4709093108936102 20.8813943157272206 -6.38936435698639116 675.64999899899999 myhost 675.64999899899999
FLASER 0 -18.5649399016441841 21.0322646913822311 -6.16943406599955857 -18.5649399016441841 21.0322646913822311 -6.16943406599955857 672.940000000000055 myhost 672.940000000000055
FLASER 0 -19.3908358577488151 20.8268867947793588 -6.2350194023714236 -19.3908358577488151 20.8268867947793588 -6.2350194023714236 669.980000000000018 myhost 669.980000000000018
FLASER 0 -20.3958429735293194 20.8920161970715732 -5.98509577726048736 -20.3958429735293194 20.8920161970715732 -5.98509577726048736 665.110000000000014 myhost 665.110000000000014
FLASER 0 -21.2936350908371175 21.0073946768948154 -6.51091775210024259 -21.2936350908371175 21.0073946768948154 -6.51091775210024259 661.350000000000023 myhost 661.350000000000023
FLASER 0 -22.3385424910519745 21.3401467989684726 -6.54034613400985343 -22.3385424910519745 21.3401467989684726 -6.54034613400985343 657.840000000000032 myhost 657.840000000000032
FLASER 0 -23.2887992121925649 21.3883701486473328 -6.39792094796294908 -23.2887992121925649 21.3883701486473328 -6.39792094796294908 654.529998998999986 myhost 654.529998998999986
FLASER 0 -24.3032152693941903 21.5340940623940362 -6.37207295591533462 -24.3032152693941903 21.5340940623940362 -6.37207295591533462 651.342998998999974 myhost 651.342998998999974
FLASER 0 -25.2590612185080197 21.6715643350942209 -6.34082479244962638 -25.2590612185080197 21.6715643350942209 -6.34082479244962638 648.139998998999999 myhost 648.139998998999999
FLASER 0 -26.2157447822133278 21.8186985791366865 -6.37471884662044364 -26.2157447822133278 21.8186985791366865 -6.37471884662044364 644.950000000000045 myhost 644.950000000000045
FLASER 0 -27.1955868912658012 21.8788592395147141 -6.38957347011349963 -27.1955868912658012 21.8788592395147141 -6.38957347011349963 641.75 myhost 641.75
FLASER 0 -28.2824648098373288 22.0316050107586072 -6.29012231165942293 -28.2824648098373288 22.0316050107586072 -6.29012231165942293 638.799998998999968 myhost 638.799998998999968
FLASER 0 -29.4184012417372394 21.9518147605226304 -6.35030102561027299 -29.4184012417372394 21.9518147605226304 -6.35030102561027299 635.960000000000036 myhost 635.960000000000036
FLASER 0 -30.4136777765283632 22.1114787367740426 -6.48305623336713843 -30.4136777765283632 22.1114787367740426 -6.48305623336713843 633.840000000000032 myhost 633.840000000000032
FLASER 0 -31.4326492832837481 22.317205964934022 -6.51796079433897813 -31.4326492832837481 22.317205964934022 -6.51796079433897813 630.850000000000023 myhost 630.850000000000023
FLASER 0 -32.4659759233188723 22.4785646886871575 -6.48637062737918146 -32.4659759233188723 22.4785646886871575 -6.48637062737918146 627.770998998999971 myhost 627.770998998999971
FLASER 0 -33.3276772356466822 22.7186602299754838 -6.50218980994035611 -33.3276772356466822 22.7186602299754838 -6.50218980994035611 625.419998998999972 myhost 625.419998998999972
FLASER 0 -34.2712540964581649 22.8768791904055675 -6.42807213016922052 -34.2712540964581649 22.8768791904055675 -6.42807213016922052 618.870000000000005 myhost 618.870000000000005
FLASER 0 -35.2922033451316324 23.0888062257718403 -6.50628620229424293 -35.2922033451316324 23.0888062257718403 -6.50628620229424293 616.120000000000005 myhost 616.120000000000005
FLASER 0 -36.2666791332168614 23.3540765117125417 -6.88073624762352765 -36.2666791332168614 23.3540765117125417 -6.88073624762352765 613.039998998999977 myhost 613.039998998999977
FLASER 0 -36.5813588839209771 23.6491380136452598 -5.43509839417216956 -36.5813588839209771 23.6491380136452598 -5.43509839417216956 610.009998999000004 myhost 610.009998999000004
FLASER 0 -36.6079130337188943 23.6572533502338551 -4.71325468280344051 -36.6079130337188943 23.6572533502338551 -4.71325468280344051 608.809998998999959 myhost 608.809998998999959
FLASER 0 -36.5928995011714733 23.6378799619194773 -4.18428096333885335 -36.5928995011714733 23.6378799619194773 -4.18428096333885335 606.049998998999968 myhost 606.049998998999968
FLASER 0 -36.2139478680198224 23.0526533723696332 -4.32515648498576333 -36.2139478680198224 23.0526533723696332 -4.32515648498576333 578.980000000000018 myhost 578.980000000000018
FLASER 0 -36.1480707468638016 22.3144065340620976 -4.84034224433422366 -36.1480707468638016 22.3144065340620976 -4.84034224433422366 577.191000000000031 myhost 577.191000000000031
FLASER 0 -36.3602074611228332 21.2472072856446594 -4.80991421993368906 -36.3602074611228332 21.2472072856446594 -4.80991421993368906 573.549998998999968 myhost 573.549998998999968
FLASER 0 -36.3991056539208486 20.1626730103645393 -4.71036595936052116 -36.3991056539208486 20.1626730103645393 -4.71036595936052116 570 myhost 570
FLASER 0 -36.4456191320913447 19.1531373311622275 -4.78404397266000547 -36.4456191320913447 19.1531373311622275 -4.78404397266000547 565.259998999000004 myhost 565.259998999000004
FLASER 0 -36.4721177540212551 18.2501359145509205 -4.73919528327428008 -36.4721177540212551 18.2501359145509205 -4.73919528327428008 559.89999899899999 myhost 559.89999899899999
FLASER 0 -36.4342882006494833 17.2984565990657693 -4.63711324858960161 -36.4342882006494833 17.2984565990657693 -4.63711324858960161 555.549998998999968 myhost 555.549998998999968
FLASER 0 -36.473363759188679 16.4491089659470937 -5.01532548692514624 -36.473363759188679 16.4491089659470937 -5.01532548692514624 550.799998998999968 myhost 550.799998998999968
FLASER 0 -36.6497125781443458 15.4496965520833651 -4.76587681887089776 -36.6497125781443458 15.4496965520833651 -4.76587681887089776 545.610000000000014 myhost 545.610000000000014
FLASER 0 -36.7469190880504968 14.600262929131949 -4.6661823547936363 -36.7469190880504968 14.600262929131949 -4.6661823547936363 541.490000000000009 myhost 541.490000000000009
FLASER 0 -36.88688000000991 13.6664649611885292 -4.76991884178156766 -36.88688000000991 13.6664649611885292 -4.76991884178156766 536.299998998999968 myhost 536.299998998999968
FLASER 0 -36.9167653103478273 12.6551190699583316 -4.76957124845963598 -36.9167653103478273 12.6551190699583316 -4.76957124845963598 531.159998998999981 myhost 531.159998998999981
FLASER 0 -36.9647193857072338 11.6338652097452631 -5.01940069977838288 -36.9647193857072338 11.6338652097452631 -5.01940069977838288 527.561000000000035 myhost 527.561000000000035
FLASER 0 -37.1646059648939442 10.6717774338173825 -4.98735155486281379 -37.1646059648939442 10.6717774338173825 -4.98735155486281379 523.690000000000055 myhost 523.690000000000055
FLASER 0 -37.3669902694250311 9.68488693998762251 -4.72330755980549544 -37.3669902694250311 9.68488693998762251 -4.72330755980549544 520.529998998999986 myhost 520.529998998999986
FLASER 0 -37.4467246294285445 8.65225317133176119 -4.89362501054597132 -37.4467246294285445 8.65225317133176119 -4.89362501054597132 517.539998998999977 myhost 517.539998998999977
FLASER 0 -37.6644950117705619 7.61764969839983408 -4.72619972895269669 -37.6644950117705619 7.61764969839983408 -4.72619972895269669 515.019998998999995 myhost 515.019998998999995
FLASER 0 -37.6162146645553719 6.76617002264571621 -4.79203732829254392 -37.6162146645553719 6.76617002264571621 -4.79203732829254392 512.590000000000032 myhost 512.590000000000032
FLASER 0 -37.9050216778577749 5.70128178632264948 -4.87339456129810245 -37.9050216778577749 5.70128178632264948 -4.87339456129810245 510 myhost 510
FLASER 0 -37.8310433892424243 4.78775080076216231 -4.47796414999981263 -37.8310433892424243 4.78775080076216231 -4.47796414999981263 508.230000000000018 myhost 508.230000000000018
FLASER 0 -37.5254424133826276 3.81802707102680605 -4.31096821823481857 -37.5254424133826276 3.81802707102680605 -4.31096821823481857 506.560000000000002 myhost 506.560000000000002
FLASER 0 -37.5004702691366703 3.80924357066708419 -4.83111376723786812 -37.5004702691366703 3.80924357066708419 -4.83111376723786812 490.029998998999986 myhost 490.029998998999986
FLASER 0 -37.6021068335413133 3.77769692155179637 -5.39415980366202596 -37.6021068335413133 3.77769692155179637 -5.39415980366202596 489.310000000000002 myhost 489.310000000000002
FLASER 0 -37.7000785423016893 3.82136815516544859 -6.01135329077924663 -37.7000785423016893 3.82136815516544859 -6.01135329077924663 488.480000000000018 myhost 488.480000000000018
FLASER 0 -37.7261442591730116 3.74118245360337065 -6.62144783987824681 -37.7261442591730116 3.74118245360337065 -6.62144783987824681 487.589998998999988 myhost 487.589998998999988
FLASER 0 -37.5934491746771684 3.66488536249648966 -7.16938510818917951 -37.5934491746771684 3.66488536249648966 -7.16938510818917951 486.870000000000005 myhost 486.870000000000005
FLASER 0 -37.5966505414672412 3.64866979918789447 -7.80100834179713942 -37.5966505414672412 3.64866979918789447 -7.80100834179713942 483.639998998999999 myhost 483.639998998999999
FLASER 0 -37.618282068722813 3.65644102286691419 -8.32157237383314019 -37.618282068722813 3.65644102286691419 -8.32157237383314019 482.920000000000016 myhost 482.920000000000016
FLASER 0 -37.6280223564862695 3.67403588214594645 -8.84814155806630787 -37.6280223564862695 3.67403588214594645 -8.84814155806630787 482.211000000000013 myhost 482.211000000000013
FLASER 0 -37.6252939585962665 3.69888668932445253 -9.47567485276054811 -37.6252939585962665 3.69888668932445253 -9.47567485276054811 481.279998998999986 myhost 481.279998998999986
FLASER 0 -37.6118148289922161 3.75233492217900721 -9.98945501028190463 -37.6118148289922161 3.75233492217900721 -9.98945501028190463 480.560000000000002 myhost 480.560000000000002
FLASER 0 -37.5712960101243993 3.78797362558302142 -10.5065332719935949 -37.5712960101243993 3.78797362558302142 -10.5065332719935949 479.930000000000007 myhost 479.930000000000007
FLASER 0 -37.4600908513323745 3.60324372165065521 -11.0337945655718972 -37.4600908513323745 3.60324372165065521 -11.0337945655718972 475.060000000000002 myhost 475.060000000000002
FLASER 0 -37.6361250344690106 2.74003178020354499 -11.5216752311764079 -37.6361250344690106 2.74003178020354499 -11.5216752311764079 465.831000000000017 myhost 465.831000000000017
FLASER 0 -38.1113205019563352 1.70787848098111583 -11.0609378279481287 -38.1113205019563352 1.70787848098111583 -11.0609378279481287 462.920000000000016 myhost 462.920000000000016
FLASER 0 -38.251666151203473 0.798268241559394576 -11.2325138529751758 -38.251666151203473 0.798268241559394576 -11.2325138529751758 460.319998999000006 myhost 460.319998999000006
FLASER 0 -38.1967350704715685 -0.227299400107867061 -10.7643380048771853 -38.1967350704715685 -0.227299400107867061 -10.7643380048771853 457.610000000000014 myhost 457.610000000000014
FLASER 0 -38.1891848478642117 -1.17466091483729262 -11.1550024789869138 -38.1891848478642117 -1.17466091483729262 -11.1550024789869138 454.779998998999986 myhost 454.779998998999986
FLASER 0 -38.6448509436611687 -2.18465647412803721 -11.5715194634950151 -38.6448509436611687 -2.18465647412803721 -11.5715194634950151 452.180000000000007 myhost 452.180000000000007
FLASER 0 -39.1751910396686611 -3.12868829961278294 -11.1396576427807581 -39.1751910396686611 -3.12868829961278294 -11.1396576427807581 450.220000000000027 myhost 450.220000000000027
FLASER 0 -39.1699351209991988 -3.42395286486428763 -10.6072531076303331 -39.1699351209991988 -3.42395286486428763 -10.6072531076303331 449.420000000000016 myhost 449.420000000000016
FLASER 0 -38.9001525435283071 -3.91234386206577422 -10.8758181313379207 -38.9001525435283071 -3.91234386206577422 -10.8758181313379207 447.870998998999994 myhost 447.870998998999994
FLASER 0 -38.9494843072910939 -4.29503647847798309 -11.3703023559582874 -38.9494843072910939 -4.29503647847798309 -11.3703023559582874 446.870998998999994 myhost 446.870998998999994
FLASER 0 -39.3775197230054061 -5.07665137430344782 -11.1814574385100673 -39.3775197230054061 -5.07665137430344782 -11.1814574385100673 444.110000000000014 myhost 444.110000000000014
FLASER 0 -39.377816751415665 -5.42380203760297164 -10.7593382940725437 -39.377816751415665 -5.42380203760297164 -10.7593382940725437 442.64100000000002 myhost 442.64100000000002
FLASER 0 -39.3064163817064625 -6.27639168486034649 -11.2202533050178967 -39.3064163817064625 -6.27639168486034649 -11.2202533050178967 440.480000000000018 myhost 440.480000000000018
FLASER 0 -39.4259974498298007 -7.37124599694663374 -10.9405483878225205 -39.4259974498298007 -7.37124599694663374 -10.9405483878225205 438.281000000000006 myhost 438.281000000000006
FLASER 0 -39.4405887027965889 -8.35935308859669135 -11.1296231511152151 -39.4405887027965889 -8.35935308859669135 -11.1296231511152151 436.009998999000004 myhost 436.009998999000004
FLASER 0 -39.5132336429444138 -9.47187223258524824 -10.9391510672821965 -39.5132336429444138 -9.47187223258524824 -10.9391510672821965 433.930000000000007 myhost 433.930000000000007
FLASER 0 -39.3681260152756636 -10.4947531415426489 -10.9056802548803589 -39.3681260152756636 -10.4947531415426489 -10.9056802548803589 431.730000000000018 myhost 431.730000000000018
FLASER 0 -39.515634022363237 -10.9768162233455442 -11.5467145145951893 -39.515634022363237 -10.9768162233455442 -11.5467145145951893 430.220000000000027 myhost 430.220000000000027
FLASER 0 -40.0046565300393979 -11.5369707020827708 -11.2615220418308208 -40.0046565300393979 -11.5369707020827708 -11.2615220418308208 428.819998999000006 myhost 428.819998999000006
FLASER 0 -39.9770608102117464 -11.5397407463362072 -10.6261796725524036 -39.9770608102117464 -11.5397407463362072 -10.6261796725524036 427.699998999000002 myhost 427.699998999000002
FLASER 0 -39.9756784452943492 -11.5390398122440647 -10.0019310204976577 -39.9756784452943492 -11.5390398122440647 -10.0019310204976577 427.029998998999986 myhost 427.029998998999986
FLASER 0 -39.5906069125572913 -11.7001668009645599 -9.92088569120870112 -39.5906069125572913 -11.7001668009645599 -9.92088569120870112 422.75 myhost 422.75
FLASER 0 -39.1899323811373534 -12.1521901959998839 -10.5841744337416266 -39.1899323811373534 -12.1521901959998839 -10.5841744337416266 421.629998999000009 myhost 421.629998999000009
FLASER 0 -39.1514241755381249 -13.0815172976169443 -11.1063732657679299 -39.1514241755381249 -13.0815172976169443 -11.1063732657679299 419.560000000000002 myhost 419.560000000000002
FLASER 0 -39.2147862523817921 -14.1526844296157837 -10.9060277120416522 -39.2147862523817921 -14.1526844296157837 -10.9060277120416522 417.64999899899999 myhost 417.64999899899999
FLASER 0 -38.940757757125823 -15.1287056716045001 -10.5073845450985939 -38.940757757125823 -15.1287056716045001 -10.5073845450985939 416.160000000000025 myhost 416.160000000000025
FLASER 0 -38.3794429636452179 -16.0287002201012747 -10.5468619829649217 -38.3794429636452179 -16.0287002201012747 -10.5468619829649217 414.689999 myhost 414.689999
FLASER 0 -38.0780861485727442 -17.1248840528556521 -11.0264463662016734 -38.0780861485727442 -17.1248840528556521 -11.0264463662016734 413.011000000000024 myhost 413.011000000000024
FLASER 0 -38.5892522520340435 -18.0045368303129045 -11.5469473447423336 -38.5892522520340435 -18.0045368303129045 -11.5469473447423336 411.620000000000005 myhost 411.620000000000005
