FLASER 0 -18.4356 -7.18714 -23.5922 -18.4356 -7.18714 -23.5922 1409.09999900000003 myhost 1409.09999900000003
FLASER 0 -18.5261041620818254 -8.16755191967525107 -23.6325291584240134 -18.5261041620818254 -8.16755191967525107 -23.6325291584240134 1406.90000000000009 myhost 1406.90000000000009
FLASER 0 -18.5712844512460258 -9.26194167784005806 -23.5651417017920046 -18.5712844512460258 -9.26194167784005806 -23.5651417017920046 1404.50999900000011 myhost 1404.50999900000011
FLASER 0 -18.5237183334610478 -10.1955882579441059 -23.5275156795303317 -18.5237183334610478 -10.1955882579441059 -23.5275156795303317 1402.54999900000007 myhost 1402.54999900000007
FLASER 0 -18.5095203629814087 -11.1192546986681897 -23.5152248953954839 -18.5095203629814087 -11.1192546986681897 -23.5152248953954839 1400.58999900000003 myhost 1400.58999900000003
FLASER 0 -18.5542025025699928 -12.0936046621272073 -23.6250594079186875 -18.5542025025699928 -12.0936046621272073 -23.6250594079186875 1398.59999900000003 myhost 1398.59999900000003
FLASER 0 -18.7201712147214181 -13.1587582432060746 -23.7597848943831487 -18.7201712147214181 -13.1587582432060746 -23.7597848943831487 1396.48000000000002 myhost 1396.48000000000002
FLASER 0 -18.8706513659727619 -14.1060507839925808 -23.7254609754944568 -18.8706513659727619 -14.1060507839925808 -23.7254609754944568 1394.27999900000009 myhost 1394.27999900000009
FLASER 0 -19.0561863420987194 -15.2518936495084265 -23.6749067807912077 -19.0561863420987194 -15.2518936495084265 -23.6749067807912077 1391.65000000000009 myhost 1391.65000000000009
FLASER 0 -19.1551435895262507 -16.3317907503573352 -23.6081300135158898 -19.1551435895262507 -16.3317907503573352 -23.6081300135158898 1388.90000000000009 myhost 1388.90000000000009
FLASER 0 -19.2581451128357273 -17.3507031723236196 -23.5620932509401264 -19.2581451128357273 -17.3507031723236196 -23.5620932509401264 1385.94000000000005 myhost 1385.94000000000005
FLASER 0 -19.3273779098601501 -18.2662445291279276 -23.7737602268078625 -19.3273779098601501 -18.2662445291279276 -23.7737602268078625 1382.99000000000001 myhost 1382.99000000000001
FLASER 0 -19.44501638340056 -19.2790457923819325 -23.6101354492683555 -19.44501638340056 -19.2790457923819325 -23.6101354492683555 1379.78999900000008 myhost 1379.78999900000008
FLASER 0 -19.390772131202592 -20.2652134144363991 -23.5335854916944456 -19.390772131202592 -20.2652134144363991 -23.5335854916944456 1376.59999900000003 myhost 1376.59999900000003
FLASER 0 -19.3831968033943944 -21.4324284406848236 -23.6007573257152181 -19.3831968033943944 -21.4324284406848236 -23.6007573257152181 1374.11999900000001 myhost 1374.11999900000001
FLASER 0 -19.4679938491241948 -22.2183455291710565 -23.9222604407183752 -19.4679938491241948 -22.2183455291710565 -23.9222604407183752 1372.36999900000001 myhost 1372.36999900000001
FLASER 0 -19.4259860818136261 -22.2702699846581353 -24.5250343906868835 -19.4259860818136261 -22.2702699846581353 -24.5250343906868835 1371.32999900000004 myhost 1371.32999900000004
FLASER 0 -19.4219554171908726 -22.2990485447560332 -25.0364184222690049 -19.4219554171908726 -22.2990485447560332 -25.0364184222690049 1347.93000000000006 myhost 1347.93000000000006
FLASER 0 -19.4168607420523429 -22.3594521290198038 -25.5335621376826829 -19.4168607420523429 -22.3594521290198038 -25.5335621376826829 1347.28999900000008 myhost 1347.28999900000008
FLASER 0 -19.4592477024837187 -22.3719849036879559 -26.1169844311328667 -19.4592477024837187 -22.3719849036879559 -26.1169844311328667 1346.45000000000005 myhost 1346.45000000000005
FLASER 0 -19.4811074051603441 -22.3772688528154369 -26.6278948480285571 -19.4811074051603441 -22.3772688528154369 -26.6278948480285571 1345.74000000000001 myhost 1345.74000000000001
FLASER 0 -19.5265315808184923 -22.3837464279081004 -27.1860063039486519 -19.5265315808184923 -22.3837464279081004 -27.1860063039486519 1344.94000000000005 myhost 1344.94000000000005
FLASER 0 -19.540333915552349 -22.3556773117706555 -27.702537610451401 -19.540333915552349 -22.3556773117706555 -27.702537610451401 1344.05999900000006 myhost 1344.05999900000006
FLASER 0 -18.8430401218807653 -21.8057088554367375 -27.2376857028490562 -18.8430401218807653 -21.8057088554367375 -27.2376857028490562 1338.3900000000001 myhost 1338.3900000000001
FLASER 0 -18.67109250101295 -20.884285775057009 -26.7007887891384286 -18.67109250101295 -20.884285775057009 -26.7007887891384286 1336.50999900000011 myhost 1336.50999900000011
FLASER 0 -18.5975115155305417 -19.8649408021800475 -26.7983520584279837 -18.5975115155305417 -19.8649408021800475 -26.7983520584279837 1334.35999900000002 myhost 1334.35999900000002
FLASER 0 -18.5382112628726041 -18.8078191019483292 -26.693604471914977 -18.5382112628726041 -18.8078191019483292 -26.693604471914977 1332 myhost 1332
FLASER 0 -18.4610857927473546 -17.7403094333654892 -26.8036325541850822 -18.4610857927473546 -17.7403094333654892 -26.8036325541850822 1329.72000000000003 myhost 1329.72000000000003
FLASER 0 -18.3245788341727334 -16.7617819763473896 -26.8189896984281546 -18.3245788341727334 -16.7617819763473896 -26.8189896984281546 1327.8900000000001 myhost 1327.8900000000001
FLASER 0 -18.2903809964820674 -15.740496699162108 -26.68631253186199 -18.2903809964820674 -15.740496699162108 -26.68631253186199 1325.69000000000005 myhost 1325.69000000000005
FLASER 0 -18.2717186659411617 -14.6961394279464113 -26.7237388294686653 -18.2717186659411617 -14.6961394279464113 -26.7237388294686653 1323.41000000000008 myhost 1323.41000000000008
FLASER 0 -18.3019990992457551 -13.754938074850056 -26.6663047197823957 -18.3019990992457551 -13.754938074850056 -26.6663047197823957 1321.25999900000011 myhost 1321.25999900000011
FLASER 0 -18.3176749910179382 -12.6491125913341076 -26.6665310392915629 -18.3176749910179382 -12.6491125913341076 -26.6665310392915629 1319.53999900000008 myhost 1319.53999900000008
FLASER 0 -18.365605788496147 -11.6312644113189663 -26.6603500641821185 -18.365605788496147 -11.6312644113189663 -26.6603500641821185 1317.86999900000001 myhost 1317.86999900000001
FLASER 0 -18.3631725560027839 -10.5379183500884483 -26.6766784502046441 -18.3631725560027839 -10.5379183500884483 -26.6766784502046441 1316.06999900000005 myhost 1316.06999900000005
FLASER 0 -18.4085518724737263 -9.55688696519934489 -26.6605205423123977 -18.4085518724737263 -9.55688696519934489 -26.6605205423123977 1314.2699990000001 myhost 1314.2699990000001
FLASER 0 -18.4273089985500782 -8.54381961968481818 -26.684297595266969 -18.4273089985500782 -8.54381961968481818 -26.684297595266969 1312.27999900000009 myhost 1312.27999900000009
FLASER 0 -18.4434219719485597 -7.52943906375619854 -26.6899105899322358 -18.4434219719485597 -7.52943906375619854 -26.6899105899322358 1310.07999900000004 myhost 1310.07999900000004
FLASER 0 -18.4217876578911905 -6.41831426552193651 -26.7071885526755821 -18.4217876578911905 -6.41831426552193651 -26.7071885526755821 1307.79999900000007 myhost 1307.79999900000007
FLASER 0 -18.4730590126260168 -5.32191495213482568 -26.4951879724740529 -18.4730590126260168 -5.32191495213482568 -26.4951879724740529 1305.45000000000005 myhost 1305.45000000000005
FLASER 0 -18.5617793708242189 -4.82402560151161364 -27.0412392509258908 -18.5617793708242189 -4.82402560151161364 -27.0412392509258908 1303.7699990000001 myhost 1303.7699990000001
FLASER 0 -18.5963364934527497 -4.85452439388024182 -27.6137148015966361 -18.5963364934527497 -4.85452439388024182 -27.6137148015966361 1302.61999900000001 myhost 1302.61999900000001
FLASER 0 -18.3792387624133511 -4.66127930402524093 -27.2844108902689051 -18.3792387624133511 -4.66127930402524093 -27.2844108902689051 1298.42000000000007 myhost 1298.42000000000007
FLASER 0 -18.0929705350568071 -4.0198484962335943 -26.7662502176096417 -18.0929705350568071 -4.0198484962335943 -26.7662502176096417 1296.54999900000007 myhost 1296.54999900000007
FLASER 0 -18.0915449745997989 -3.05457398111672163 -26.7394021679340987 -18.0915449745997989 -3.05457398111672163 -26.7394021679340987 1294.30999900000006 myhost 1294.30999900000006
FLASER 0 -18.2446268777109992 -2.13081695146954964 -26.3912100732188613 -18.2446268777109992 -2.13081695146954964 -26.3912100732188613 1292.50999900000011 myhost 1292.50999900000011
FLASER 0 -18.6763939722141927 -1.16826559930107798 -26.2220569201952145 -18.6763939722141927 -1.16826559930107798 -26.2220569201952145 1291.11999900000001 myhost 1291.11999900000001
FLASER 0 -19.1934133269333067 -0.229744420162599577 -26.1380546989877587 -19.1934133269333067 -0.229744420162599577 -26.1380546989877587 1289.68000000000006 myhost 1289.68000000000006
FLASER 0 -19.6531866027212523 0.608100003395940836 -26.2480497416332952 -19.6531866027212523 0.608100003395940836 -26.2480497416332952 1288.31999900000005 myhost 1288.31999900000005
FLASER 0 -19.7938277070740867 0.883390087135821567 -25.6452902774409992 -19.7938277070740867 0.883390087135821567 -25.6452902774409992 1287.24000000000001 myhost 1287.24000000000001
FLASER 0 -20.3615575403579534 0.920974904859224286 -25.0333437931242564 -20.3615575403579534 0.920974904859224286 -25.0333437931242564 1286.27999900000009 myhost 1286.27999900000009
FLASER 0 -21.3999639542480118 0.857394152598744519 -24.6563970944903943 -21.3999639542480118 0.857394152598744519 -24.6563970944903943 1284.36999900000001 myhost 1284.36999900000001
FLASER 0 -21.4631286642541959 0.88412663896877719 -24.1105349361655854 -21.4631286642541959 0.88412663896877719 -24.1105349361655854 1283.28999900000008 myhost 1283.28999900000008
FLASER 0 -21.5531402485892514 0.927153679751938742 -23.4863177243188446 -21.5531402485892514 0.927153679751938742 -23.4863177243188446 1282.32999900000004 myhost 1282.32999900000004
FLASER 0 -21.6227593548622998 0.889752032696792039 -22.9430733755332952 -21.6227593548622998 0.889752032696792039 -22.9430733755332952 1281.66000000000008 myhost 1281.66000000000008
FLASER 0 -21.5229317659148727 0.87959629797294081 -22.4805833663651526 -21.5229317659148727 0.87959629797294081 -22.4805833663651526 1280.84999900000003 myhost 1280.84999900000003
FLASER 0 -20.6213442081723315 0.81835233180678868 -21.9896937114563578 -20.6213442081723315 0.81835233180678868 -21.9896937114563578 1271.3900000000001 myhost 1271.3900000000001
FLASER 0 -19.5264142851180154 0.759377458494846502 -22.0973363870158224 -19.5264142851180154 0.759377458494846502 -22.0973363870158224 1269.86999900000001 myhost 1269.86999900000001
FLASER 0 -18.4723770178312421 0.632070012004577131 -21.8076386405431535 -18.4723770178312421 0.632070012004577131 -21.8076386405431535 1268.40000000000009 myhost 1268.40000000000009
FLASER 0 -18.2872243161458634 0.70427973245278519 -21.1730756077151661 -18.2872243161458634 0.70427973245278519 -21.1730756077151661 1267.44000000000005 myhost 1267.44000000000005
FLASER 0 -18.0346350523160908 1.38077257954224053 -20.6606128487268137 -18.0346350523160908 1.38077257954224053 -20.6606128487268137 1266.40000000000009 myhost 1266.40000000000009
FLASER 0 -17.7309356415802952 2.34972279730034117 -20.7512691204577138 -17.7309356415802952 2.34972279730034117 -20.7512691204577138 1265 myhost 1265
FLASER 0 -17.4098435981530848 3.32724347622071948 -20.5040736469025227 -17.4098435981530848 3.32724347622071948 -20.5040736469025227 1263.56999900000005 myhost 1263.56999900000005
FLASER 0 -17.4309308058411254 4.31128067973599371 -20.385995816100106 -17.4309308058411254 4.31128067973599371 -20.385995816100106 1241.69000000000005 myhost 1241.69000000000005
FLASER 0 -17.4635621047112295 5.35338908646303313 -20.48782146638532 -17.4635621047112295 5.35338908646303313 -20.48782146638532 1239.28999900000008 myhost 1239.28999900000008
FLASER 0 -17.4442778962414557 6.35680166552538939 -20.4017660652061146 -17.4442778962414557 6.35680166552538939 -20.4017660652061146 1237.08999900000003 myhost 1237.08999900000003
FLASER 0 -17.4699694245528718 7.37735561329657497 -20.3685404427075376 -17.4699694245528718 7.37735561329657497 -20.3685404427075376 1235.05999900000006 myhost 1235.05999900000006
FLASER 0 -17.4717358935914824 8.37989618797025315 -20.432044510678093 -17.4717358935914824 8.37989618797025315 -20.432044510678093 1233.05999900000006 myhost 1233.05999900000006
FLASER 0 -17.5048128021019913 9.42739081569783544 -20.3909517734925068 -17.5048128021019913 9.42739081569783544 -20.3909517734925068 1231.09999900000003 myhost 1231.09999900000003
FLASER 0 -17.5241179281126804 10.5497654517135686 -20.3925270365884224 -17.5241179281126804 10.5497654517135686 -20.3925270365884224 1229.02999900000009 myhost 1229.02999900000009
FLASER 0 -17.5171517664721286 11.5148146127686548 -20.3960808347448115 -17.5171517664721286 11.5148146127686548 -20.3960808347448115 1227.15000000000009 myhost 1227.15000000000009
FLASER 0 -17.5723327021850544 12.5233076941818808 -20.3708669677746492 -17.5723327021850544 12.5233076941818808 -20.3708669677746492 1225.24000000000001 myhost 1225.24000000000001
FLASER 0 -17.5740543560293609 13.5851242296276506 -20.4107063341320831 -17.5740543560293609 13.5851242296276506 -20.4107063341320831 1223.5199990000001 myhost 1223.5199990000001
FLASER 0 -17.6268801359896443 14.6808848663104516 -20.3751138019448348 -17.6268801359896443 14.6808848663104516 -20.3751138019448348 1221.59999900000003 myhost 1221.59999900000003
FLASER 0 -17.6439345548958784 15.8640143664584112 -20.3916925693048867 -17.6439345548958784 15.8640143664584112 -20.3916925693048867 1219.17000000000007 myhost 1219.17000000000007
FLASER 0 -17.6471586340809807 16.938317081351812 -20.3737903645128711 -17.6471586340809807 16.938317081351812 -20.3737903645128711 1216.65000000000009 myhost 1216.65000000000009
FLASER 0 -17.6632393691875791 17.9077211007948307 -20.3987698518903287 -17.6632393691875791 17.9077211007948307 -20.3987698518903287 1214.46000000000004 myhost 1214.46000000000004
FLASER 0 -17.6574697110226495 18.9804511010017762 -20.4144903414232672 -17.6574697110226495 18.9804511010017762 -20.4144903414232672 1212.33999900000003 myhost 1212.33999900000003
FLASER 0 -17.5984074385765048 19.6683635725483832 -20.9246629334302945 -17.5984074385765048 19.6683635725483832 -20.9246629334302945 1211.06999900000005 myhost 1211.06999900000005
FLASER 0 -17.5751847353253439 19.7042793225042558 -20.3943804293042135 -17.5751847353253439 19.7042793225042558 -20.3943804293042135 1208.71000000000004 myhost 1208.71000000000004
FLASER 0 -17.5377049259338627 19.6966278498013061 -19.8168341494930225 -17.5377049259338627 19.6966278498013061 -19.8168341494930225 1207.86999900000001 myhost 1207.86999900000001
FLASER 0 -17.51070454604465 19.7044054832051145 -19.246864592522364 -17.51070454604465 19.7044054832051145 -19.246864592522364 1207.06999900000005 myhost 1207.06999900000005
FLASER 0 -17.5088565296870584 19.7837229520348608 -18.5894156300469042 -17.5088565296870584 19.7837229520348608 -18.5894156300469042 1206.10999900000002 myhost 1206.10999900000002
FLASER 0 -17.5390237089585384 19.7811715442583953 -17.9807888259198521 -17.5390237089585384 19.7811715442583953 -17.9807888259198521 1205.54999900000007 myhost 1205.54999900000007
FLASER 0 -17.8430358380208354 19.3207749284207324 -17.4244858770525965 -17.8430358380208354 19.3207749284207324 -17.4244858770525965 1183.63000000000011 myhost 1183.63000000000011
FLASER 0 -17.8067374383363486 18.2418970953463422 -17.2768700599383038 -17.8067374383363486 18.2418970953463422 -17.2768700599383038 1181.27999900000009 myhost 1181.27999900000009
FLASER 0 -17.8392411021884172 17.281114713380731 -17.266031430580302 -17.8392411021884172 17.281114713380731 -17.266031430580302 1179.03999900000008 myhost 1179.03999900000008
FLASER 0 -17.8793402046036896 16.2846150129220035 -17.3331503677857803 -17.8793402046036896 16.2846150129220035 -17.3331503677857803 1176.80999900000006 myhost 1176.80999900000006
FLASER 0 -17.8923004634077607 15.2623396725557843 -17.2468473450162705 -17.8923004634077607 15.2623396725557843 -17.2468473450162705 1174.49000000000001 myhost 1174.49000000000001
FLASER 0 -17.8445919643376278 14.1312650008226655 -17.2253877726143791 -17.8445919643376278 14.1312650008226655 -17.2253877726143791 1172.21000000000004 myhost 1172.21000000000004
FLASER 0 -17.8479440695822404 13.1480472453257384 -17.2278878494411387 -17.8479440695822404 13.1480472453257384 -17.2278878494411387 1170.0199990000001 myhost 1170.0199990000001
FLASER 0 -17.7970375829801917 12.1517467219859956 -17.2739148170546706 -17.7970375829801917 12.1517467219859956 -17.2739148170546706 1167.66000000000008 myhost 1167.66000000000008
FLASER 0 -17.7990564880501587 11.3269686649914139 -17.3203531768127981 -17.7990564880501587 11.3269686649914139 -17.3203531768127981 1165.43000000000006 myhost 1165.43000000000006
FLASER 0 -18.0082951735323391 10.2536034231159157 -17.3805490082373915 -18.0082951735323391 10.2536034231159157 -17.3805490082373915 1162.99000000000001 myhost 1162.99000000000001
FLASER 0 -18.0140527346381383 9.18300736920298277 -17.326470620019478 -18.0140527346381383 9.18300736920298277 -17.326470620019478 1159.20000000000005 myhost 1159.20000000000005
FLASER 0 -17.9806986693997644 8.00240633412302849 -17.2098520692543637 -17.9806986693997644 8.00240633412302849 -17.2098520692543637 1156.35999900000002 myhost 1156.35999900000002
FLASER 0 -17.9278491966924065 6.94675857310395628 -17.2254474026750799 -17.9278491966924065 6.94675857310395628 -17.2254474026750799 1154.25 myhost 1154.25
FLASER 0 -17.875856580472977 5.98219868430899915 -17.2247947261194057 -17.875856580472977 5.98219868430899915 -17.2247947261194057 1152.17000000000007 myhost 1152.17000000000007
FLASER 0 -17.7916637819323427 4.85522460606222239 -17.1992318075507349 -17.7916637819323427 4.85522460606222239 -17.1992318075507349 1145.25999900000011 myhost 1145.25999900000011
FLASER 0 -17.7496877077720185 3.81397493902130158 -17.1945968001558782 -17.7496877077720185 3.81397493902130158 -17.1945968001558782 1143.30999900000006 myhost 1143.30999900000006
FLASER 0 -17.5809661753684061 2.79473347630403257 -17.0005956677563823 -17.5809661753684061 2.79473347630403257 -17.0005956677563823 1141.82999900000004 myhost 1141.82999900000004
FLASER 0 -17.3090710945596093 1.705153440839692 -17.0956879418740719 -17.3090710945596093 1.705153440839692 -17.0956879418740719 1140.27999900000009 myhost 1140.27999900000009
FLASER 0 -17.3344619961503774 0.941819155213450498 -17.6206187232419005 -17.3344619961503774 0.941819155213450498 -17.6206187232419005 1139.23000000000002 myhost 1139.23000000000002
FLASER 0 -17.7590697199385623 0.364354869448424823 -18.2696543990524631 -17.7590697199385623 0.364354869448424823 -18.2696543990524631 1138.20000000000005 myhost 1138.20000000000005
FLASER 0 -18.5990157676036922 0.165787796367868584 -18.8124632126458202 -18.5990157676036922 0.165787796367868584 -18.8124632126458202 1136.72000000000003 myhost 1136.72000000000003
FLASER 0 -19.6426985775023653 0.1773467613036461 -19.0008791318011987 -19.6426985775023653 0.1773467613036461 -19.0008791318011987 1135.20000000000005 myhost 1135.20000000000005
FLASER 0 -19.7660062348224841 0.176001531366833969 -19.5529784906819692 -19.7660062348224841 0.176001531366833969 -19.5529784906819692 1113.83999900000003 myhost 1113.83999900000003
FLASER 0 -20.6154820388025222 0.777293243915869958 -19.1761915883747882 -20.6154820388025222 0.777293243915869958 -19.1761915883747882 1111.7699990000001 myhost 1111.7699990000001
FLASER 0 -21.6120803285534748 0.889217188888403398 -18.9249295853191022 -21.6120803285534748 0.889217188888403398 -18.9249295853191022 1109.73000000000002 myhost 1109.73000000000002
FLASER 0 -22.6455250007530573 0.977329283562966666 -18.9019843295339527 -22.6455250007530573 0.977329283562966666 -18.9019843295339527 1107.56999900000005 myhost 1107.56999900000005
FLASER 0 -23.6615778798506398 1.05009605134645323 -19.0576246760069878 -23.6615778798506398 1.05009605134645323 -19.0576246760069878 1105.1400000000001 myhost 1105.1400000000001
FLASER 0 -24.7129261582425173 1.17062188288356306 -18.8176952941872067 -24.7129261582425173 1.17062188288356306 -18.8176952941872067 1102.66000000000008 myhost 1102.66000000000008
FLASER 0 -25.6841129991600354 1.16867828861664269 -18.8333795699739817 -25.6841129991600354 1.16867828861664269 -18.8333795699739817 1100.50999900000011 myhost 1100.50999900000011
FLASER 0 -26.7832626540478458 1.17372556059692412 -18.8697203835605549 -26.7832626540478458 1.17372556059692412 -18.8697203835605549 1098.02999900000009 myhost 1098.02999900000009
FLASER 0 -27.7644876193547105 1.14416792344866081 -18.8116812149850219 -27.7644876193547105 1.14416792344866081 -18.8116812149850219 1095.3900000000001 myhost 1095.3900000000001
FLASER 0 -28.7844864255106287 1.13740346339813048 -18.8675748673392469 -28.7844864255106287 1.13740346339813048 -18.8675748673392469 1092.96000000000004 myhost 1092.96000000000004
FLASER 0 -29.8443682215673363 1.21391173295658739 -19.0779041186906113 -29.8443682215673363 1.21391173295658739 -19.0779041186906113 1090.97000000000003 myhost 1090.97000000000003
FLASER 0 -30.8387441624209835 1.31978987875818965 -18.843851881649929 -30.8387441624209835 1.31978987875818965 -18.843851881649929 1089.32999900000004 myhost 1089.32999900000004
FLASER 0 -31.9759801861841666 1.38936962326514313 -18.8845320848672742 -31.9759801861841666 1.38936962326514313 -18.8845320848672742 1087.65000000000009 myhost 1087.65000000000009
FLASER 0 -33.0574506007699895 1.59521611801293828 -18.9875508335552681 -33.0574506007699895 1.59521611801293828 -18.9875508335552681 1085.93000000000006 myhost 1085.93000000000006
FLASER 0 -34.1457257318197449 1.67209391609129487 -18.98612747228605 -34.1457257318197449 1.67209391609129487 -18.98612747228605 1084.22000000000003 myhost 1084.22000000000003
FLASER 0 -35.2146755144539085 1.73722660103411597 -18.8417836729940724 -35.2146755144539085 1.73722660103411597 -18.8417836729940724 1082.5 myhost 1082.5
FLASER 0 -36.3868425710368655 1.72832005583951176 -18.8276754105448738 -36.3868425710368655 1.72832005583951176 -18.8276754105448738 1080.46000000000004 myhost 1080.46000000000004
FLASER 0 -37.3839140375300971 1.80232690456429601 -18.9922133970864877 -37.3839140375300971 1.80232690456429601 -18.9922133970864877 1078.86999900000001 myhost 1078.86999900000001
FLASER 0 -38.360353397159912 1.93213646080674772 -18.9910555307654825 -38.360353397159912 1.93213646080674772 -18.9910555307654825 1077.3900000000001 myhost 1077.3900000000001
FLASER 0 -38.3538616708098488 1.97661023219331677 -18.4918011700288325 -38.3538616708098488 1.97661023219331677 -18.4918011700288325 1072.48000000000002 myhost 1072.48000000000002
FLASER 0 -38.3732186721568524 2.01176480141050806 -17.9560616976947394 -38.3732186721568524 2.01176480141050806 -17.9560616976947394 1071.72000000000003 myhost 1071.72000000000003
FLASER 0 -38.4079645979407118 2.03705862178168751 -17.3550949469733808 -38.4079645979407118 2.03705862178168751 -17.3550949469733808 1070.83999900000003 myhost 1070.83999900000003
FLASER 0 -38.4400955480304987 2.04588734707743836 -16.8538246944272707 -38.4400955480304987 2.04588734707743836 -16.8538246944272707 1070.20000000000005 myhost 1070.20000000000005
FLASER 0 -38.5180962780789784 1.97016421838545663 -16.2717990743146181 -38.5180962780789784 1.97016421838545663 -16.2717990743146181 1069.41000000000008 myhost 1069.41000000000008
FLASER 0 -37.9258277968539943 1.81746130010214046 -15.8518434657777192 -37.9258277968539943 1.81746130010214046 -15.8518434657777192 1047.35999900000002 myhost 1047.35999900000002
FLASER 0 -36.9276219051618355 1.66580569973741377 -15.8891513537019549 -36.9276219051618355 1.66580569973741377 -15.8891513537019549 1045.97000000000003 myhost 1045.97000000000003
FLASER 0 -35.8929079224384253 1.49653050260970488 -15.8449370131337908 -35.8929079224384253 1.49653050260970488 -15.8449370131337908 1044.49000000000001 myhost 1044.49000000000001
FLASER 0 -34.8703872654303737 1.45294088410022892 -15.6860828727001493 -34.8703872654303737 1.45294088410022892 -15.6860828727001493 1043.13000000000011 myhost 1043.13000000000011
FLASER 0 -33.8117807760130589 1.49486568913098949 -15.5657831895242662 -33.8117807760130589 1.49486568913098949 -15.5657831895242662 1041.22000000000003 myhost 1041.22000000000003
FLASER 0 -32.7799288306761909 1.50356692728094243 -15.7356022825248196 -32.7799288306761909 1.50356692728094243 -15.7356022825248196 1039.74000000000001 myhost 1039.74000000000001
FLASER 0 -31.5733567861278566 1.41344647386476208 -15.7208630186772904 -31.5733567861278566 1.41344647386476208 -15.7208630186772904 1038.1400000000001 myhost 1038.1400000000001
FLASER 0 -30.4228011898289701 1.41418196227400195 -15.7830014092402262 -30.4228011898289701 1.41418196227400195 -15.7830014092402262 1036.5 myhost 1036.5
FLASER 0 -29.2880349727570852 1.35511898102490758 -15.7827214691207285 -29.2880349727570852 1.35511898102490758 -15.7827214691207285 1034.95000000000005 myhost 1034.95000000000005
FLASER 0 -28.2589943321370214 1.31225530807455826 -15.6766829164632924 -28.2589943321370214 1.31225530807455826 -15.6766829164632924 1033.43000000000006 myhost 1033.43000000000006
FLASER 0 -27.0156255835352894 1.21675643570474556 -15.9435001542042265 -27.0156255835352894 1.21675643570474556 -15.9435001542042265 1031.78999900000008 myhost 1031.78999900000008
FLASER 0 -25.806030203527051 0.909889603822304549 -15.809932007513563 -25.806030203527051 0.909889603822304549 -15.809932007513563 1030.19000000000005 myhost 1030.19000000000005
FLASER 0 -24.7617098866786129 0.878326919919883764 -15.6964072907595238 -24.7617098866786129 0.878326919919883764 -15.6964072907595238 1028.72000000000003 myhost 1028.72000000000003
FLASER 0 -23.6020192490651723 0.8682975643548273 -15.7012761897293753 -23.6020192490651723 0.8682975643548273 -15.7012761897293753 1026.6400000000001 myhost 1026.6400000000001
FLASER 0 -22.3552528951876894 0.882837343918608353 -15.6925480799426413 -22.3552528951876894 0.882837343918608353 -15.6925480799426413 1024.55999900000006 myhost 1024.55999900000006
FLASER 0 -21.3809329897928748 0.882723699290582142 -15.6796892812885602 -21.3809329897928748 0.882723699290582142 -15.6796892812885602 1022.52999899899999 myhost 1022.52999899899999
FLASER 0 -20.3645617293861001 0.941685290977223755 -15.678408679551108 -20.3645617293861001 0.941685290977223755 -15.678408679551108 1020.85000000000002 myhost 1020.85000000000002
FLASER 0 -19.1730385718569565 0.817714945952121575 -15.9712767386189256 -19.1730385718569565 0.817714945952121575 -15.9712767386189256 1019.21000000000004 myhost 1019.21000000000004
FLASER 0 -18.1830052881298379 0.653092796141314103 -15.5358637799316135 -18.1830052881298379 0.653092796141314103 -15.5358637799316135 1017.77999899899999 myhost 1017.77999899899999
FLASER 0 -17.1115713515756411 1.09775779093061243 -15.165814794110462 -17.1115713515756411 1.09775779093061243 -15.165814794110462 1016.139998999 myhost 1016.139998999
FLASER 0 -16.2154191801085013 1.68479173434136853 -15.3288293173149803 -16.2154191801085013 1.68479173434136853 -15.3288293173149803 987.190000000000055 myhost 987.190000000000055
FLASER 0 -16.3172144800901506 1.7410983672053677 -15.8837784913932261 -16.3172144800901506 1.7410983672053677 -15.8837784913932261 986.39999899899999 myhost 986.39999899899999
FLASER 0 -16.1913580710500895 1.71672931140885643 -16.6351891638509812 -16.1913580710500895 1.71672931140885643 -16.6351891638509812 985.32000000000005 myhost 985.32000000000005
FLASER 0 -16.2271709253779477 1.79332246557618058 -17.1748799917544517 -16.2271709253779477 1.79332246557618058 -17.1748799917544517 984.600000000000023 myhost 984.600000000000023
FLASER 0 -16.1992632087655757 1.46796225044876261 -16.9143956864633367 -16.1992632087655757 1.46796225044876261 -16.9143956864633367 974.980000000000018 myhost 974.980000000000018
FLASER 0 -15.9903063290280816 1.13268471052082464 -16.265518531823588 -15.9903063290280816 1.13268471052082464 -16.265518531823588 974.100999000000002 myhost 974.100999000000002
FLASER 0 -15.3212267941059626 0.877195683754865452 -15.7956088939391002 -15.3212267941059626 0.877195683754865452 -15.7956088939391002 972.620000000000005 myhost 972.620000000000005
FLASER 0 -14.3203603447266961 0.793891827191278709 -15.7831151491252797 -14.3203603447266961 0.793891827191278709 -15.7831151491252797 970.259998999000004 myhost 970.259998999000004
FLASER 0 -13.1915156069174593 0.758828715470481141 -15.730553523938978 -13.1915156069174593 0.758828715470481141 -15.730553523938978 967.389998998999999 myhost 967.389998998999999
FLASER 0 -12.0996740632800837 0.720678637361801044 -15.7422877884252799 -12.0996740632800837 0.720678637361801044 -15.7422877884252799 964.879998999000009 myhost 964.879998999000009
FLASER 0 -11.05563611995637 0.672282810682370391 -15.7751748465003772 -11.05563611995637 0.672282810682370391 -15.7751748465003772 963.080000000000041 myhost 963.080000000000041
FLASER 0 -9.90370083891387054 0.615870833618826996 -15.6923357998925397 -9.90370083891387054 0.615870833618826996 -15.6923357998925397 961.440000000000055 myhost 961.440000000000055
FLASER 0 -8.80847687298164495 0.652561117391590728 -15.7125997046299375 -8.80847687298164495 0.652561117391590728 -15.7125997046299375 959.919998998999972 myhost 959.919998998999972
FLASER 0 -7.74990132939862697 0.66048638115667091 -15.633578961977074 -7.74990132939862697 0.66048638115667091 -15.633578961977074 958.490000000000009 myhost 958.490000000000009
FLASER 0 -6.83817156304792917 0.71467072118181918 -16.0431634219509611 -6.83817156304792917 0.71467072118181918 -16.0431634219509611 957.169998998999972 myhost 957.169998998999972
FLASER 0 -6.78480817465938024 0.68135389204081398 -16.411893029644677 -6.78480817465938024 0.68135389204081398 -16.411893029644677 950.059998998999959 myhost 950.059998998999959
FLASER 0 -6.23694612174739138 0.527050160953237201 -15.8064063830936874 -6.23694612174739138 0.527050160953237201 -15.8064063830936874 948.309998998999959 myhost 948.309998998999959
FLASER 0 -5.14128129672705647 0.484822348009274207 -15.647506862421384 -5.14128129672705647 0.484822348009274207 -15.647506862421384 946.710000000000036 myhost 946.710000000000036
FLASER 0 -3.97705881541462691 0.533174855219590293 -15.6370467360565844 -3.97705881541462691 0.533174855219590293 -15.6370467360565844 944.990000000000009 myhost 944.990000000000009
FLASER 0 -2.89826872389084489 0.534732124290101751 -15.8178420389524526 -2.89826872389084489 0.534732124290101751 -15.8178420389524526 943.39999899899999 myhost 943.39999899899999
FLASER 0 -1.94668850660108128 0.217675674522812945 -16.0560618894941243 -1.94668850660108128 0.217675674522812945 -16.0560618894941243 942 myhost 942
FLASER 0 -0.919714931363131094 0.00889392257099467891 -15.8046022488753959 -0.919714931363131094 0.00889392257099467891 -15.8046022488753959 940.440000000000055 myhost 940.440000000000055
FLASER 0 0.0680679495722014138 0.0671005374417022737 -15.2996128163863201 0.0680679495722014138 0.0671005374417022737 -15.2996128163863201 939 myhost 939
FLASER 0 0.678790076008627175 0.306046595481995753 -15.7615011339311231 0.678790076008627175 0.306046595481995753 -15.7615011339311231 937.801000000000045 myhost 937.801000000000045
FLASER 0 0.683710998686866911 0.338821542569336054 -16.1114688452319257 0.683710998686866911 0.338821542569336054 -16.1114688452319257 917.279998998999986 myhost 917.279998998999986
FLASER 0 0.711350976926033218 0.331149617675194574 -15.5748215084225698 0.711350976926033218 0.331149617675194574 -15.5748215084225698 916.39999899899999 myhost 916.39999899899999
FLASER 0 0.621798822858084854 0.318703493425618545 -15.0020217330761518 0.621798822858084854 0.318703493425618545 -15.0020217330761518 915.690000000000055 myhost 915.690000000000055
FLASER 0 0.654868239432749411 0.251278394129106242 -14.4556349594306432 0.654868239432749411 0.251278394129106242 -14.4556349594306432 914.850000000000023 myhost 914.850000000000023
FLASER 0 0.688734104277819559 0.247752653793849448 -13.936840203359953 0.688734104277819559 0.247752653793849448 -13.936840203359953 914.049998998999968 myhost 914.049998998999968
FLASER 0 0.780096092817360254 0.399367658331444664 -13.2649015487544037 0.780096092817360254 0.399367658331444664 -13.2649015487544037 913.409998998999981 myhost 913.409998998999981
FLASER 0 0.218966689297762307 0.385926496019703413 -12.665877507799939 0.218966689297762307 0.385926496019703413 -12.665877507799939 900 myhost 900
FLASER 0 -0.842970834373493072 0.387986039750529033 -12.7804178744662451 -0.842970834373493072 0.387986039750529033 -12.7804178744662451 898.240000000000009 myhost 898.240000000000009
FLASER 0 -0.89477645108585302 0.393757731716844583 -13.2560260905175706 -0.89477645108585302 0.393757731716844583 -13.2560260905175706 897.279998998999986 myhost 897.279998998999986
FLASER 0 -0.985292793309214154 0.368679085962956787 -13.8268745181128061 -0.985292793309214154 0.368679085962956787 -13.8268745181128061 896.32000000000005 myhost 896.32000000000005
FLASER 0 -1.00896013445265775 0.422524396495140786 -14.2983073469644157 -1.00896013445265775 0.422524396495140786 -14.2983073469644157 895.600000000000023 myhost 895.600000000000023
FLASER 0 -1.10564948979254996 0.387547669472087686 -14.9282208153725762 -1.10564948979254996 0.387547669472087686 -14.9282208153725762 894.879998999000009 myhost 894.879998999000009
FLASER 0 -1.04377752803015733 0.458238258138042198 -15.5506894535202136 -1.04377752803015733 0.458238258138042198 -15.5506894535202136 893.929998998999963 myhost 893.929998998999963
FLASER 0 -0.390910412924459327 0.372691184393153241 -15.598545644324231 -0.390910412924459327 0.372691184393153241 -15.598545644324231 872.57000000000005 myhost 872.57000000000005
FLASER 0 0.20229267261257225 0.443169734700677997 -14.9986740400773719 0.20229267261257225 0.443169734700677997 -14.9986740400773719 871.730998999000008 myhost 871.730998999000008
FLASER 0 0.439295026321915305 0.712829325132254943 -14.3948849303768576 0.439295026321915305 0.712829325132254943 -14.3948849303768576 870.769998998999995 myhost 870.769998998999995
FLASER 0 0.483264073915599668 1.72446313355806202 -14.1847596429458811 0.483264073915599668 1.72446313355806202 -14.1847596429458811 868.410998998999958 myhost 868.410998998999958
FLASER 0 0.679314433442363752 2.74878459560093358 -14.1533762072159739 0.679314433442363752 2.74878459560093358 -14.1533762072159739 865.5 myhost 865.5
FLASER 0 0.806361461038646254 3.85286527817643609 -14.1931176769556178 0.806361461038646254 3.85286527817643609 -14.1931176769556178 862.580000000000041 myhost 862.580000000000041
FLASER 0 0.772490746975494247 4.96424790945536021 -14.1222855130341269 0.772490746975494247 4.96424790945536021 -14.1222855130341269 859.669998998999972 myhost 859.669998998999972
FLASER 0 0.778182690441981961 6.01762872635157908 -14.150484986447216 0.778182690441981961 6.01762872635157908 -14.150484986447216 856.840000000000032 myhost 856.840000000000032
FLASER 0 0.851760759447063975 6.93237575256458527 -14.183668382483674 0.851760759447063975 6.93237575256458527 -14.183668382483674 854.080000000000041 myhost 854.080000000000041
FLASER 0 0.807525405854652045 7.99174525899511146 -14.1632173632777754 0.807525405854652045 7.99174525899511146 -14.1632173632777754 851.131998998999961 myhost 851.131998998999961
FLASER 0 0.805472549186309728 9.03430364098028171 -14.1204049177631585 0.805472549186309728 9.03430364098028171 -14.1204049177631585 848.049998998999968 myhost 848.049998998999968
FLASER 0 0.766426626940255207 10.1314243861554143 -14.1236075536209 0.766426626940255207 10.1314243861554143 -14.1236075536209 844.860000000000014 myhost 844.860000000000014
FLASER 0 0.764297111392809758 11.3138176495134424 -14.1474756604839182 0.764297111392809758 11.3138176495134424 -14.1474756604839182 841.539998998999977 myhost 841.539998998999977
FLASER 0 0.75926693348897234 12.3532975121117392 -14.0864392489878618 0.75926693348897234 12.3532975121117392 -14.0864392489878618 838.470000000000027 myhost 838.470000000000027
FLASER 0 0.769896506064079778 13.4198540533507504 -14.1683684735050335 0.769896506064079778 13.4198540533507504 -14.1683684735050335 835.440000000000055 myhost 835.440000000000055
FLASER 0 0.784998430461121499 14.3257920068963021 -14.1724485303245693 0.784998430461121499 14.3257920068963021 -14.1724485303245693 832.440000000000055 myhost 832.440000000000055
FLASER 0 0.890468459281203439 15.5310419941158049 -14.1375748791263263 0.890468459281203439 15.5310419941158049 -14.1375748791263263 829.490000000000009 myhost 829.490000000000009
FLASER 0 0.816121954038912523 16.5156082268275277 -14.129290317982159 0.816121954038912523 16.5156082268275277 -14.129290317982159 826.409998998999981 myhost 826.409998998999981
FLASER 0 0.784778194050355205 17.5133249971869169 -14.1267924766264468 0.784778194050355205 17.5133249971869169 -14.1267924766264468 823.340000000000032 myhost 823.340000000000032
FLASER 0 0.735621524630996615 18.4561991481311694 -13.920794264128789 0.735621524630996615 18.4561991481311694 -13.920794264128789 820.259998999000004 myhost 820.259998999000004
FLASER 0 0.733413405873232893 19.4096009660014985 -14.0608631329149478 0.733413405873232893 19.4096009660014985 -14.0608631329149478 817.429998998999963 myhost 817.429998998999963
FLASER 0 0.739439375763163098 19.5654353530700114 -13.5161585862938125 0.739439375763163098 19.5654353530700114 -13.5161585862938125 816.629998999000009 myhost 816.629998999000009
FLASER 0 0.75804828414108083 19.5615915177539286 -12.9093131304046818 0.75804828414108083 19.5615915177539286 -12.9093131304046818 815.671000000000049 myhost 815.671000000000049
FLASER 0 0.759789768930681286 19.6050532046635553 -12.3368676675586162 0.759789768930681286 19.6050532046635553 -12.3368676675586162 799.580000000000041 myhost 799.580000000000041
FLASER 0 0.710453856380343751 19.6658975420293523 -11.8197193937404545 0.710453856380343751 19.6658975420293523 -11.8197193937404545 798.870000000000005 myhost 798.870000000000005
FLASER 0 0.693725043450598267 19.6534528733331371 -11.2503508704192523 0.693725043450598267 19.6534528733331371 -11.2503508704192523 798.019998998999995 myhost 798.019998998999995
FLASER 0 0.623469854218687614 19.6777825078436273 -10.6930597662594753 0.623469854218687614 19.6777825078436273 -10.6930597662594753 797.299998998999968 myhost 797.299998998999968
FLASER 0 0.606077674356948148 19.6313942223496092 -10.0636243177258038 0.606077674356948148 19.6313942223496092 -10.0636243177258038 796.340000000000032 myhost 796.340000000000032
FLASER 0 0.661974897786071659 19.5841370403642294 -9.41493531988774812 0.661974897786071659 19.5841370403642294 -9.41493531988774812 795.551000000000045 myhost 795.551000000000045
FLASER 0 0.649041697906457937 19.561455514182807 -8.89726230814854091 0.649041697906457937 19.561455514182807 -8.89726230814854091 791.390998998999976 myhost 791.390998998999976
FLASER 0 0.685194852410169863 19.5434342312569491 -8.26118346206820853 0.685194852410169863 19.5434342312569491 -8.26118346206820853 790.522000000000048 myhost 790.522000000000048
FLASER 0 0.731158847169629644 19.5243202221394547 -7.69807750936274626 0.731158847169629644 19.5243202221394547 -7.69807750936274626 789.759998999000004 myhost 789.759998999000004
FLASER 0 0.742616168453590686 19.5544854993975861 -7.10028659115877936 0.742616168453590686 19.5544854993975861 -7.10028659115877936 788.879998999000009 myhost 788.879998999000009
FLASER 0 0.757983042989004097 19.5830944366003052 -6.52168722644905063 0.757983042989004097 19.5830944366003052 -6.52168722644905063 788.240000000000009 myhost 788.240000000000009
FLASER 0 0.750875768554674972 19.5975340301421568 -6.2084185231136928 0.750875768554674972 19.5975340301421568 -6.2084185231136928 785.640998998999976 myhost 785.640998998999976
FLASER 0 0.644929798151212652 19.6100410545608668 -6.07517827780790665 0.644929798151212652 19.6100410545608668 -6.07517827780790665 779.019998998999995 myhost 779.019998998999995
FLASER 0 0.264411770444693273 19.6090786635734986 -6.12136684591946079 0.264411770444693273 19.6090786635734986 -6.12136684591946079 777.700000000000045 myhost 777.700000000000045
FLASER 0 -0.785286154527013891 19.6801546039187407 -6.30663756207311454 -0.785286154527013891 19.6801546039187407 -6.30663756207311454 774.029998998999986 myhost 774.029998998999986
FLASER 0 -1.80462838477098386 19.6943826707342353 -6.27664446238576712 -1.80462838477098386 19.6943826707342353 -6.27664446238576712 770.75 myhost 770.75
FLASER 0 -2.84207241545054989 19.6958957987440044 -6.29433682744413669 -2.84207241545054989 19.6958957987440044 -6.29433682744413669 767.360000000000014 myhost 767.360000000000014
FLASER 0 -3.8524100830110064 19.758871866515225 -6.28997175714215473 -3.8524100830110064 19.758871866515225 -6.28997175714215473 764.120000000000005 myhost 764.120000000000005
FLASER 0 -4.89119180184621261 19.734775232803603 -6.31965926420733481 -4.89119180184621261 19.734775232803603 -6.31965926420733481 760.889998998999999 myhost 760.889998998999999
FLASER 0 -5.86185785671992399 19.8010520284789386 -6.37839770241871307 -5.86185785671992399 19.8010520284789386 -6.37839770241871307 756.461000000000013 myhost 756.461000000000013
FLASER 0 -6.95605340303458153 19.8607267482005376 -6.27290319477108316 -6.95605340303458153 19.8607267482005376 -6.27290319477108316 753.301000000000045 myhost 753.301000000000045
FLASER 0 -7.89932056167103358 19.8533509586577566 -6.23055562051496814 -7.89932056167103358 19.8533509586577566 -6.23055562051496814 750.030998998999962 myhost 750.030998998999962
FLASER 0 -8.99019704821306753 19.850437332033426 -6.27571564247105496 -8.99019704821306753 19.850437332033426 -6.27571564247105496 746.480000000000018 myhost 746.480000000000018
FLASER 0 -9.94799042382493326 19.8692978098502628 -6.29478676287635253 -9.94799042382493326 19.8692978098502628 -6.29478676287635253 743.291000000000054 myhost 743.291000000000054
FLASER 0 -10.9989782582908937 19.9522060477647081 -6.38467821667045587 -10.9989782582908937 19.9522060477647081 -6.38467821667045587 739.889998998999999 myhost 739.889998998999999
FLASER 0 -12.0466810766088557 19.9754401503710497 -6.32143582697529283 -12.0466810766088557 19.9754401503710497 -6.32143582697529283 736.610998999000003 myhost 736.610998999000003
FLASER 0 -13.0123365390264674 20.0351638495422968 -6.29763195451249569 -13.0123365390264674 20.0351638495422968 -6.29763195451249569 733.620000000000005 myhost 733.620000000000005
FLASER 0 -14.0633861574494485 19.9016835875178799 -6.30214653867474972 -14.0633861574494485 19.9016835875178799 -6.30214653867474972 730.470000000000027 myhost 730.470000000000027
FLASER 0 -14.6329763010901779 19.9044103094386315 -5.98830646796556643 -14.6329763010901779 19.9044103094386315 -5.98830646796556643 728.159998998999981 myhost 728.159998998999981
FLASER 0 -14.9199745622410518 19.8632187982905855 -6.50652768482843857 -14.9199745622410518 19.8632187982905855 -6.50652768482843857 726.350000000000023 myhost 726.350000000000023
FLASER 0 -15.2715782139601544 19.9496234318773702 -6.61444181462569691 -15.2715782139601544 19.9496234318773702 -6.61444181462569691 723.759998999000004 myhost 723.759998999000004
FLASER 0 -16.3367196771724821 20.1608543245165279 -6.4191704254976667 -16.3367196771724821 20.1608543245165279 -6.4191704254976667 720.679998998999963 myhost 720.679998998999963
FLASER 0 -17.4614350899926833 20.2666357570058366 -6.12904241445881315 -17.4614350899926833 20.2666357570058366 -6.12904241445881315 719.049998998999968 myhost 719.049998998999968
FLASER 0 -17.6439175167932554 20.2353646147216466 -6.10407336922390176 -17.6439175167932554 20.2353646147216466 -6.10407336922390176 700.840000000000032 myhost 700.840000000000032
FLASER 0 -17.6169477352543815 20.2326631820619092 -6.66517403214747883 -17.6169477352543815 20.2326631820619092 -6.66517403214747883 700.039998998999977 myhost 700.039998998999977
FLASER 0 -17.653250771965908 20.1965037863244952 -7.18851557759735638 -17.653250771965908 20.1965037863244952 -7.18851557759735638 699.39999899899999 myhost 699.39999899899999
FLASER 0 -17.688517541848352 20.1514502681276682 -7.91607840496008563 -17.688517541848352 20.1514502681276682 -7.91607840496008563 698.370000000000005 myhost 698.370000000000005
FLASER 0 -17.6875461926354483 20.1157799844956173 -8.0337290187553414 -17.6875461926354483 20.1157799844956173 -8.0337290187553414 694.461998999000002 myhost 694.461998999000002
FLASER 0 -17.6671589259713713 20.1601156388515506 -7.45245019703185996 -17.6671589259713713 20.1601156388515506 -7.45245019703185996 693.410998998999958 myhost 693.410998998999958
FLASER 0 -17.6142845553032537 20.2560386572012519 -6.92926778432001811 -17.6142845553032537 20.2560386572012519 -6.92926778432001811 692.690000000000055 myhost 692.690000000000055
FLASER 0 -17.5981276060522092 20.2508975631200947 -6.35132606483954643 -17.5981276060522092 20.2508975631200947 -6.35132606483954643 692.059998998999959 myhost 692.059998998999959
FLASER 0 -18.5708009904397997 20.2407450588927809 -6.35398558799625235 -18.5708009904397997 20.2407450588927809 -6.35398558799625235 675.64999899899999 myhost 675.64999899899999
FLASER 0 -19.6944358096891747 20.3419670988839698 -6.1283877636695836 -19.6944358096891747 20.3419670988839698 -6.1283877636695836 672.940000000000055 myhost 672.940000000000055
FLASER 0 -20.5899027131168353 20.1059791941074373 -6.20375466939532316 -20.5899027131168353 20.1059791941074373 -6.20375466939532316 669.980000000000018 myhost 669.980000000000018
FLASER 0 -21.6254665650386677 20.0126142988931264 -5.87713366555845518 -21.6254665650386677 20.0126142988931264 -5.87713366555845518 665.110000000000014 myhost 665.110000000000014
FLASER 0 -22.4426251215241415 20.0209860496002783 -6.40606782689224641 -22.4426251215241415 20.0209860496002783 -6.40606782689224641 661.350000000000023 myhost 661.350000000000023
FLASER 0 -23.4485101466391583 20.1857406470301051 -6.37881798757054597 -23.4485101466391583 20.1857406470301051 -6.37881798757054597 657.840000000000032 myhost 657.840000000000032
FLASER 0 -24.4103880614348192 20.1947228736731361 -6.30569875147455328 -24.4103880614348192 20.1947228736731361 -6.30569875147455328 654.529998998999986 myhost 654.529998998999986
FLASER 0 -25.4994909863092332 20.2546808557810891 -6.28535092946840113 -25.4994909863092332 20.2546808557810891 -6.28535092946840113 651.342998998999974 myhost 651.342998998999974
FLASER 0 -26.512645396479531 20.319690786885463 -6.26709842268051709 -26.512645396479531 20.319690786885463 -6.26709842268051709 648.139998998999999 myhost 648.139998998999999
FLASER 0 -27.4923856290522579 20.3606190445955946 -6.27586888672813181 -27.4923856290522579 20.3606190445955946 -6.27586888672813181 644.950000000000045 myhost 644.950000000000045
FLASER 0 -28.5181018910386257 20.3774117793836673 -6.32156445134405764 -28.5181018910386257 20.3774117793836673 -6.32156445134405764 641.75 myhost 641.75
FLASER 0 -29.5913862863346289 20.4619395101093602 -6.21595601732257297 -29.5913862863346289 20.4619395101093602 -6.21595601732257297 638.799998998999968 myhost 638.799998998999968
FLASER 0 -30.6060335419235692 20.3152541314095885 -6.2737931463077663 -30.6060335419235692 20.3152541314095885 -6.2737931463077663 635.960000000000036 myhost 635.960000000000036
FLASER 0 -31.634528088720316 20.4238496087997206 -6.42749043529638708 -31.634528088720316 20.4238496087997206 -6.42749043529638708 633.840000000000032 myhost 633.840000000000032
FLASER 0 -32.6527238994112494 20.5721424939529918 -6.45185354748016149 -32.6527238994112494 20.5721424939529918 -6.45185354748016149 630.850000000000023 myhost 630.850000000000023
FLASER 0 -33.6132684533729602 20.690040373926454 -6.43487383759794085 -33.6132684533729602 20.690040373926454 -6.43487383759794085 627.770998998999971 myhost 627.770998998999971
FLASER 0 -34.6209982508422982 20.8842546434379592 -6.46358026920427253 -34.6209982508422982 20.8842546434379592 -6.46358026920427253 625.419998998999972 myhost 625.419998998999972
FLASER 0 -35.5980649999209717 21.0015564290878558 -6.36831161517577904 -35.5980649999209717 21.0015564290878558 -6.36831161517577904 618.870000000000005 myhost 618.870000000000005
FLASER 0 -36.5759928673645049 21.1734284989126458 -6.46618944648662364 -36.5759928673645049 21.1734284989126458 -6.46618944648662364 616.120000000000005 myhost 616.120000000000005
FLASER 0 -37.6225288333484116 21.3859486531246574 -6.83257505211714378 -37.6225288333484116 21.3859486531246574 -6.83257505211714378 613.039998998999977 myhost 613.039998998999977
FLASER 0 -37.9386143064594776 21.749166922875844 -5.39651946047041697 -37.9386143064594776 21.749166922875844 -5.39651946047041697 610.009998999000004 myhost 610.009998999000004
FLASER 0 -37.9952524389037123 21.7578370625516015 -4.6770621472075451 -37.9952524389037123 21.7578370625516015 -4.6770621472075451 608.809998998999959 myhost 608.809998998999959
FLASER 0 -38.0259818868696442 21.6633232379547067 -4.18782724502253334 -38.0259818868696442 21.6633232379547067 -4.18782724502253334 606.049998998999968 myhost 606.049998998999968
FLASER 0 -37.6254311600284126 21.0874867854664885 -4.3028938882853156 -37.6254311600284126 21.0874867854664885 -4.3028938882853156 578.980000000000018 myhost 578.980000000000018
FLASER 0 -37.503943998282935 20.3429760760724214 -4.80934131083171756 -37.503943998282935 20.3429760760724214 -4.80934131083171756 577.191000000000031 myhost 577.191000000000031
FLASER 0 -37.6646308275881054 19.2622713591442078 -4.76356259963345696 -37.6646308275881054 19.2622713591442078 -4.76356259963345696 573.549998998999968 myhost 573.549998998999968
FLASER 0 -37.6108396374178326 18.1891671311698566 -4.6330871838717016 -37.6108396374178326 18.1891671311698566 -4.6330871838717016 570 myhost 570
FLASER 0 -37.5358485038278502 17.2270078718143047 -4.68279570886067109 -37.5358485038278502 17.2270078718143047 -4.68279570886067109 565.259998999000004 myhost 565.259998999000004
FLASER 0 -37.57110690755988 16.1878372683732543 -4.70174401096455874 -37.57110690755988 16.1878372683732543 -4.70174401096455874 559.89999899899999 myhost 559.89999899899999
FLASER 0 -37.4832552948522419 15.1736563524375025 -4.58837846619591083 -37.4832552948522419 15.1736563524375025 -4.58837846619591083 555.549998998999968 myhost 555.549998998999968
FLASER 0 -37.455341604113201 14.2770445309045808 -4.92229009870770273 -37.455341604113201 14.2770445309045808 -4.92229009870770273 550.799998998999968 myhost 550.799998998999968
FLASER 0 -37.5516076806112267 13.2437781910190058 -4.68835027820800665 -37.5516076806112267 13.2437781910190058 -4.68835027820800665 545.610000000000014 myhost 545.610000000000014
FLASER 0 -37.5782817915275089 12.3920333527107775 -4.58121466729856497 -37.5782817915275089 12.3920333527107775 -4.58121466729856497 541.490000000000009 myhost 541.490000000000009
FLASER 0 -37.6052951580199704 11.4025442216391024 -4.68386138859815304 -37.6052951580199704 11.4025442216391024 -4.68386138859815304 536.299998998999968 myhost 536.299998998999968
FLASER 0 -37.5123466786973054 10.4126454116647729 -4.62934146474120034 -37.5123466786973054 10.4126454116647729 -4.62934146474120034 531.159998998999981 myhost 531.159998998999981
FLASER 0 -37.5138075694986526 9.39172332606221438 -4.94079149781541105 -37.5138075694986526 9.39172332606221438 -4.94079149781541105 527.561000000000035 myhost 527.561000000000035
FLASER 0 -37.637599602888514 8.36655025223604021 -4.89790577796330329 -37.637599602888514 8.36655025223604021 -4.89790577796330329 523.690000000000055 myhost 523.690000000000055
FLASER 0 -37.8199195741988703 7.2977693231696783 -4.67723267526050535 -37.8199195741988703 7.2977693231696783 -4.67723267526050535 520.529998998999986 myhost 520.529998998999986
FLASER 0 -37.8752467382216409 6.25023949682600044 -4.85836450862427593 -37.8752467382216409 6.25023949682600044 -4.85836450862427593 517.539998998999977 myhost 517.539998998999977
FLASER 0 -38.0120476462529737 5.29993936648895936 -4.65952854852129228 -38.0120476462529737 5.29993936648895936 -4.65952854852129228 515.019998998999995 myhost 515.019998998999995
FLASER 0 -37.9511516431046445 4.36536535823201888 -4.75353816148205688 -37.9511516431046445 4.36536535823201888 -4.75353816148205688 512.590000000000032 myhost 512.590000000000032
FLASER 0 -38.1309524681033807 3.37632206423828585 -4.80344028547050872 -38.1309524681033807 3.37632206423828585 -4.80344028547050872 510 myhost 510
FLASER 0 -38.0693742042361976 2.31728466614445194 -4.42871314132250848 -38.0693742042361976 2.31728466614445194 -4.42871314132250848 508.230000000000018 myhost 508.230000000000018
FLASER 0 -37.7654554436395742 1.39550297488208797 -4.26840179870097192 -37.7654554436395742 1.39550297488208797 -4.26840179870097192 506.560000000000002 myhost 506.560000000000002
FLASER 0 -37.678110517558622 1.37958076386272177 -4.79231182844989068 -37.678110517558622 1.37958076386272177 -4.79231182844989068 490.029998998999986 myhost 490.029998998999986
FLASER 0 -37.7528635835746016 1.38048666524154018 -5.362241941180244 -37.7528635835746016 1.38048666524154018 -5.362241941180244 489.310000000000002 myhost 489.310000000000002
FLASER 0 -37.6210327210525577 1.33739869739521477 -5.96819003432004447 -37.6210327210525577 1.33739869739521477 -5.96819003432004447 488.480000000000018 myhost 488.480000000000018
FLASER 0 -37.6085193683972392 1.31325797934969679 -6.59291931805279585 -37.6085193683972392 1.31325797934969679 -6.59291931805279585 487.589998998999988 myhost 487.589998998999988
FLASER 0 -37.6636477585263165 1.26510220328281542 -7.13425091611774587 -37.6636477585263165 1.26510220328281542 -7.13425091611774587 486.870000000000005 myhost 486.870000000000005
FLASER 0 -37.7500997327768317 1.25844392066274646 -7.74990643595138362 -37.7500997327768317 1.25844392066274646 -7.74990643595138362 483.639998998999999 myhost 483.639998998999999
FLASER 0 -37.7559419444544417 1.25067956553984505 -8.27068478778415717 -37.7559419444544417 1.25067956553984505 -8.27068478778415717 482.920000000000016 myhost 482.920000000000016
FLASER 0 -37.7371724034493212 1.27721270378285845 -8.83678169466619678 -37.7371724034493212 1.27721270378285845 -8.83678169466619678 482.211000000000013 myhost 482.211000000000013
FLASER 0 -37.7942573431245563 1.30805480753131653 -9.46714662458669132 -37.7942573431245563 1.30805480753131653 -9.46714662458669132 481.279998998999986 myhost 481.279998998999986
FLASER 0 -37.7827321605936888 1.34726063705957344 -9.9843562433065749 -37.7827321605936888 1.34726063705957344 -9.9843562433065749 480.560000000000002 myhost 480.560000000000002
FLASER 0 -37.7541506651792531 1.36871198564333363 -10.5037183375030718 -37.7541506651792531 1.36871198564333363 -10.5037183375030718 479.930000000000007 myhost 479.930000000000007
FLASER 0 -37.6562561622594387 1.14226632344915391 -10.9953645441672556 -37.6562561622594387 1.14226632344915391 -10.9953645441672556 475.060000000000002 myhost 475.060000000000002
FLASER 0 -37.8613684898340779 0.27643890035580182 -11.497913388321173 -37.8613684898340779 0.27643890035580182 -11.497913388321173 465.831000000000017 myhost 465.831000000000017
FLASER 0 -38.1953959680986941 -0.724760612321316389 -11.0260596004988027 -38.1953959680986941 -0.724760612321316389 -11.0260596004988027 462.920000000000016 myhost 462.920000000000016
FLASER 0 -38.3272846795309974 -1.69035507394626783 -11.2120810066872156 -38.3272846795309974 -1.69035507394626783 -11.2120810066872156 460.319998999000006 myhost 460.319998999000006
FLASER 0 -38.2828838546823249 -2.75233726102669474 -10.7751974892560547 -38.2828838546823249 -2.75233726102669474 -10.7751974892560547 457.610000000000014 myhost 457.610000000000014
FLASER 0 -38.2795639818145901 -3.72284035660736334 -11.1342099790788982 -38.2795639818145901 -3.72284035660736334 -11.1342099790788982 454.779998998999986 myhost 454.779998998999986
FLASER 0 -38.6638547835087749 -4.75159844901139561 -11.5193707636282472 -38.6638547835087749 -4.75159844901139561 -11.5193707636282472 452.180000000000007 myhost 452.180000000000007
FLASER 0 -39.0808018074138346 -5.67363293421470694 -11.071923048850179 -39.0808018074138346 -5.67363293421470694 -11.071923048850179 450.220000000000027 myhost 450.220000000000027
FLASER 0 -39.0845476158577441 -5.95747631623532214 -10.5370272816681609 -39.0845476158577441 -5.95747631623532214 -10.5370272816681609 449.420000000000016 myhost 449.420000000000016
FLASER 0 -38.819314206294095 -6.4560646374597157 -10.839349312053919 -38.819314206294095 -6.4560646374597157 -10.839349312053919 447.870998998999994 myhost 447.870998998999994
FLASER 0 -38.8173938584082663 -6.739849115216618 -11.3187036117395152 -38.8173938584082663 -6.739849115216618 -11.3187036117395152 446.870998998999994 myhost 446.870998998999994
FLASER 0 -39.2364841770524038 -7.70419282345983358 -11.1433087000364104 -39.2364841770524038 -7.70419282345983358 -11.1433087000364104 444.110000000000014 myhost 444.110000000000014
FLASER 0 -39.2103959520280583 -8.04872898608458343 -10.7147488742533632 -39.2103959520280583 -8.04872898608458343 -10.7147488742533632 442.64100000000002 myhost 442.64100000000002
FLASER 0 -39.1048707733011796 -9.00847099756347625 -11.1585352923818846 -39.1048707733011796 -9.00847099756347625 -11.1585352923818846 440.480000000000018 myhost 440.480000000000018
FLASER 0 -39.2401327721221236 -10.0725598628141757 -10.921312669132476 -39.2401327721221236 -10.0725598628141757 -10.921312669132476 438.281000000000006 myhost 438.281000000000006
FLASER 0 -39.2079938124929654 -11.0558730028079957 -11.1087508393803525 -39.2079938124929654 -11.0558730028079957 -11.1087508393803525 436.009998999000004 myhost 436.009998999000004
FLASER 0 -39.2908368912302279 -12.128431681441084 -10.9167788088935751 -39.2908368912302279 -12.128431681441084 -10.9167788088935751 433.930000000000007 myhost 433.930000000000007
FLASER 0 -39.1823573142297619 -13.208383185414954 -10.9438962315652706 -39.1823573142297619 -13.208383185414954 -10.9438962315652706 431.730000000000018 myhost 431.730000000000018
FLASER 0 -39.2877780732967778 -13.6836378584747198 -11.5330136466626545 -39.2877780732967778 -13.6836378584747198 -11.5330136466626545 430.220000000000027 myhost 430.220000000000027
FLASER 0 -39.6725635646475112 -14.2150765161640518 -11.1929947289438925 -39.6725635646475112 -14.2150765161640518 -11.1929947289438925 428.819998999000006 myhost 428.819998999000006
FLASER 0 -39.7448588746939322 -14.2912307480241161 -10.6180130112725273 -39.7448588746939322 -14.2912307480241161 -10.6180130112725273 427.699998999000002 myhost 427.699998999000002
FLASER 0 -39.7333344013826562 -14.272539919101261 -9.99218777383346435 -39.7333344013826562 -14.272539919101261 -9.99218777383346435 427.029998998999986 myhost 427.029998998999986
FLASER 0 -39.3352869005324308 -14.4630910179973906 -9.9266296410848387 -39.3352869005324308 -14.4630910179973906 -9.9266296410848387 422.75 myhost 422.75
FLASER 0 -38.9323323556812397 -14.8789021339902003 -10.5631095716979999 -38.9323323556812397 -14.8789021339902003 -10.5631095716979999 421.629998999000009 myhost 421.629998999000009
FLASER 0 -38.8045953096594189 -15.8649505739001047 -11.081786352941867 -38.8045953096594189 -15.8649505739001047 -11.081786352941867 419.560000000000002 myhost 419.560000000000002
FLASER 0 -38.8068975709628177 -16.9183227249492205 -10.8568544368128137 -38.8068975709628177 -16.9183227249492205 -10.8568544368128137 417.64999899899999 myhost 417.64999899899999
FLASER 0 -38.5774143487883308 -17.9094106175532026 -10.4829183459347437 -38.5774143487883308 -17.9094106175532026 -10.4829183459347437 416.160000000000025 myhost 416.160000000000025
FLASER 0 -38.026896626592233 -18.7527888787723285 -10.5029851204971365 -38.026896626592233 -18.7527888787723285 -10.5029851204971365 414.689999 myhost 414.689999
FLASER 0 -37.7495342506503277 -19.8219186561368943 -11.0120546432676996 -37.7495342506503277 -19.8219186561368943 -11.0120546432676996 413.011000000000024 myhost 413.011000000000024
FLASER 0 -38.1407144964290836 -20.7616310116580465 -11.5048296783687238 -38.1407144964290836 -20.7616310116580465 -11.5048296783687238 411.620000000000005 myhost 411.620000000000005
